[
  {
    "id": "22377855",
    "name": "사랑의교회",
    "address": "서울 서초구 서초동 1541-1",
    "roadAddress": "서울 서초구 반포대로 121",
    "phone": "02-3495-1000",
    "lat": 37.49079306489833,
    "lng": 127.00746299878162,
    "url": "http://place.map.kakao.com/22377855",
    "category": "문화,예술 > 종교 > 기독교 > 교회",
    "region_keyword": "서울특별시"
  },
  {
    "id": "17010406",
    "name": "오륜교회",
    "address": "서울 강동구 성내동 449-7",
    "roadAddress": "서울 강동구 강동대로 235",
    "phone": "02-485-4004",
    "lat": 37.522741716368,
    "lng": 127.132395701923,
    "url": "http://place.map.kakao.com/17010406",
    "category": "문화,예술 > 종교 > 기독교 > 교회",
    "region_keyword": "서울특별시"
  },
  {
    "id": "9717455",
    "name": "온누리교회",
    "address": "서울 용산구 용산동6가 69-172",
    "roadAddress": "서울 용산구 이촌로 347-11",
    "phone": "02-793-9686",
    "lat": 37.51809373766583,
    "lng": 126.9851862079945,
    "url": "http://place.map.kakao.com/9717455",
    "category": "문화,예술 > 종교 > 기독교 > 교회",
    "region_keyword": "서울특별시"
  },
  {
    "id": "8011787",
    "name": "여의도순복음교회",
    "address": "서울 영등포구 여의도동 11",
    "roadAddress": "서울 영등포구 국회대로76길 15",
    "phone": "02-6181-9191",
    "lat": 37.53099544758003,
    "lng": 126.92315776116541,
    "url": "http://place.map.kakao.com/8011787",
    "category": "문화,예술 > 종교 > 기독교 > 교회",
    "region_keyword": "서울특별시"
  },
  {
    "id": "7937569",
    "name": "영락교회",
    "address": "서울 중구 저동2가 69",
    "roadAddress": "서울 중구 수표로 33",
    "phone": "02-2280-0114",
    "lat": 37.5640307301773,
    "lng": 126.988998287545,
    "url": "http://place.map.kakao.com/7937569",
    "category": "문화,예술 > 종교 > 기독교 > 교회",
    "region_keyword": "서울특별시"
  },
  {
    "id": "8490868",
    "name": "충현교회",
    "address": "서울 강남구 역삼동 665-1",
    "roadAddress": "서울 강남구 테헤란로27길 40",
    "phone": "02-552-8200",
    "lat": 37.5047899661841,
    "lng": 127.037258624327,
    "url": "http://place.map.kakao.com/8490868",
    "category": "문화,예술 > 종교 > 기독교 > 교회",
    "region_keyword": "서울특별시"
  },
  {
    "id": "11648382",
    "name": "양재온누리교회",
    "address": "서울 서초구 양재동 55",
    "roadAddress": "서울 서초구 바우뫼로31길 70",
    "phone": "02-573-9686",
    "lat": 37.4795050951847,
    "lng": 127.033949274284,
    "url": "http://place.map.kakao.com/11648382",
    "category": "문화,예술 > 종교 > 기독교 > 교회",
    "region_keyword": "서울특별시"
  },
  {
    "id": "8238992",
    "name": "금란교회",
    "address": "서울 중랑구 망우동 340-1",
    "roadAddress": "서울 중랑구 망우로 455",
    "phone": "02-490-7000",
    "lat": 37.6007110191529,
    "lng": 127.102742085796,
    "url": "http://place.map.kakao.com/8238992",
    "category": "문화,예술 > 종교 > 기독교 > 교회",
    "region_keyword": "서울특별시"
  },
  {
    "id": "553818334",
    "name": "새문안교회",
    "address": "서울 종로구 신문로1가 42",
    "roadAddress": "서울 종로구 새문안로 79",
    "phone": "",
    "lat": 37.5707929620233,
    "lng": 126.97357539180554,
    "url": "http://place.map.kakao.com/553818334",
    "category": "문화,예술 > 종교 > 기독교 > 교회",
    "region_keyword": "서울특별시 종로구 당주동"
  },
  {
    "id": "17111880",
    "name": "소망교회",
    "address": "서울 강남구 신사동 624",
    "roadAddress": "서울 강남구 압구정로36길 55",
    "phone": "02-512-9191",
    "lat": 37.5251146284509,
    "lng": 127.031707381281,
    "url": "http://place.map.kakao.com/17111880",
    "category": "문화,예술 > 종교 > 기독교 > 교회",
    "region_keyword": "서울특별시"
  },
  {
    "id": "9815987",
    "name": "삼일교회",
    "address": "서울 용산구 청파동1가 180-36",
    "roadAddress": "서울 용산구 청파로 304",
    "phone": "02-713-2660",
    "lat": 37.546782507101,
    "lng": 126.970677914288,
    "url": "http://place.map.kakao.com/9815987",
    "category": "문화,예술 > 종교 > 기독교 > 교회",
    "region_keyword": "서울특별시"
  },
  {
    "id": "8406782",
    "name": "신길교회",
    "address": "서울 영등포구 신길동 63-3",
    "roadAddress": "서울 영등포구 영등포로67가길 9",
    "phone": "02-831-2015",
    "lat": 37.515120166336125,
    "lng": 126.91966755673508,
    "url": "http://place.map.kakao.com/8406782",
    "category": "문화,예술 > 종교 > 기독교 > 교회",
    "region_keyword": "서울특별시"
  },
  {
    "id": "8061146",
    "name": "정동제일교회",
    "address": "서울 중구 정동 34-3",
    "roadAddress": "서울 중구 정동길 46",
    "phone": "02-753-0001",
    "lat": 37.5654120237026,
    "lng": 126.972730643183,
    "url": "http://place.map.kakao.com/8061146",
    "category": "문화,예술 > 종교 > 기독교 > 교회",
    "region_keyword": "서울특별시 종로구 당주동"
  },
  {
    "id": "8088135",
    "name": "청운교회",
    "address": "서울 강남구 역삼동 779-10",
    "roadAddress": "서울 강남구 언주로65길 6",
    "phone": "02-569-7001",
    "lat": 37.495672610058,
    "lng": 127.045219667111,
    "url": "http://place.map.kakao.com/8088135",
    "category": "문화,예술 > 종교 > 기독교 > 교회",
    "region_keyword": "서울특별시"
  },
  {
    "id": "8497576",
    "name": "연세중앙교회",
    "address": "서울 구로구 궁동 189-1",
    "roadAddress": "서울 구로구 부일로 977",
    "phone": "02-2680-0001",
    "lat": 37.49538792502602,
    "lng": 126.83520468951967,
    "url": "http://place.map.kakao.com/8497576",
    "category": "문화,예술 > 종교 > 기독교 > 교회",
    "region_keyword": "서울특별시"
  },
  {
    "id": "18935959",
    "name": "도림교회",
    "address": "서울 영등포구 도림동 205-24",
    "roadAddress": "서울 영등포구 도영로 37",
    "phone": "02-2181-6000",
    "lat": 37.50944519588113,
    "lng": 126.89702798967103,
    "url": "http://place.map.kakao.com/18935959",
    "category": "문화,예술 > 종교 > 기독교 > 교회",
    "region_keyword": "서울특별시"
  },
  {
    "id": "8769333",
    "name": "광림교회 본당",
    "address": "서울 강남구 신사동 571-2",
    "roadAddress": "서울 강남구 논현로175길 49",
    "phone": "02-2056-5600",
    "lat": 37.5243953086956,
    "lng": 127.025598249546,
    "url": "http://place.map.kakao.com/8769333",
    "category": "문화,예술 > 종교 > 기독교 > 교회",
    "region_keyword": "서울특별시"
  },
  {
    "id": "2139404473",
    "name": "향린교회",
    "address": "서울 종로구 내수동 110-5",
    "roadAddress": "서울 종로구 경희궁2길 11",
    "phone": "02-776-9141",
    "lat": 37.57312061951292,
    "lng": 126.97137169556092,
    "url": "http://place.map.kakao.com/2139404473",
    "category": "문화,예술 > 종교 > 기독교 > 교회",
    "region_keyword": "서울특별시 종로구 내수동"
  },
  {
    "id": "9063836",
    "name": "사랑제일교회",
    "address": "서울 성북구 장위동 69-72",
    "roadAddress": "서울 성북구 돌곶이로27가길 21",
    "phone": "02-912-0191",
    "lat": 37.61282771560669,
    "lng": 127.05343618799567,
    "url": "http://place.map.kakao.com/9063836",
    "category": "문화,예술 > 종교 > 기독교 > 교회",
    "region_keyword": "서울특별시"
  },
  {
    "id": "1578600646",
    "name": "남서울교회",
    "address": "서울 서초구 반포동 4-12",
    "roadAddress": "서울 서초구 신반포로19길 36",
    "phone": "02-2023-5600",
    "lat": 37.5047452786401,
    "lng": 126.994969455281,
    "url": "http://place.map.kakao.com/1578600646",
    "category": "문화,예술 > 종교 > 기독교 > 교회",
    "region_keyword": "서울특별시"
  },
  {
    "id": "11431879",
    "name": "명성교회 베들레헴성전",
    "address": "서울 강동구 명일동 331-1",
    "roadAddress": "서울 강동구 구천면로 452",
    "phone": "02-440-9000",
    "lat": 37.54824478303686,
    "lng": 127.1481069958968,
    "url": "http://place.map.kakao.com/11431879",
    "category": "문화,예술 > 종교 > 기독교 > 교회",
    "region_keyword": "서울특별시"
  },
  {
    "id": "11328618",
    "name": "한성교회",
    "address": "서울 양천구 신정동 758-1",
    "roadAddress": "서울 양천구 신정로13길 21",
    "phone": "",
    "lat": 37.51130069886226,
    "lng": 126.84256687882261,
    "url": "http://place.map.kakao.com/11328618",
    "category": "문화,예술 > 종교 > 기독교 > 교회",
    "region_keyword": "서울특별시"
  },
  {
    "id": "23736800",
    "name": "베이직교회",
    "address": "서울 강남구 논현동 32-18",
    "roadAddress": "서울 강남구 논현로145길 19",
    "phone": "02-518-1335",
    "lat": 37.51746081726561,
    "lng": 127.02726547222258,
    "url": "http://place.map.kakao.com/23736800",
    "category": "문화,예술 > 종교 > 기독교 > 교회",
    "region_keyword": "서울특별시"
  },
  {
    "id": "7848125",
    "name": "동안교회",
    "address": "서울 동대문구 이문동 346-99",
    "roadAddress": "서울 동대문구 회기로25길 67",
    "phone": "02-962-0727",
    "lat": 37.59289619563,
    "lng": 127.056891301527,
    "url": "http://place.map.kakao.com/7848125",
    "category": "문화,예술 > 종교 > 기독교 > 교회",
    "region_keyword": "서울특별시"
  },
  {
    "id": "989564077",
    "name": "서울성락교회 본당",
    "address": "서울 영등포구 신길동 355-20",
    "roadAddress": "서울 영등포구 도림로 307",
    "phone": "",
    "lat": 37.5047876717331,
    "lng": 126.902053622778,
    "url": "http://place.map.kakao.com/989564077",
    "category": "문화,예술 > 종교 > 기독교 > 교회",
    "region_keyword": "서울특별시"
  },
  {
    "id": "8833639",
    "name": "국제루터교회",
    "address": "서울 용산구 한남동 726-39",
    "roadAddress": "서울 용산구 한남대로 148",
    "phone": "02-794-6274",
    "lat": 37.541805359461,
    "lng": 127.003883401872,
    "url": "http://place.map.kakao.com/8833639",
    "category": "문화,예술 > 종교 > 기독교 > 교회",
    "region_keyword": "서울특별시"
  },
  {
    "id": "14852003",
    "name": "맑은샘광천교회",
    "address": "서울 성북구 석관동 340-78",
    "roadAddress": "서울 성북구 화랑로 192",
    "phone": "02-959-6002",
    "lat": 37.6075810297567,
    "lng": 127.051923913796,
    "url": "http://place.map.kakao.com/14852003",
    "category": "문화,예술 > 종교 > 기독교 > 교회",
    "region_keyword": "서울특별시"
  },
  {
    "id": "11465199",
    "name": "한국기독교100주년기념교회",
    "address": "서울 마포구 합정동 142-1",
    "roadAddress": "서울 마포구 양화진길 46",
    "phone": "02-332-9177",
    "lat": 37.54649909889785,
    "lng": 126.91176363196843,
    "url": "http://place.map.kakao.com/11465199",
    "category": "문화,예술 > 종교 > 기독교 > 교회",
    "region_keyword": "서울특별시"
  },
  {
    "id": "18371326",
    "name": "예원교회",
    "address": "서울 강서구 등촌동 659-1",
    "roadAddress": "서울 강서구 화곡로63길 65",
    "phone": "02-3661-2000",
    "lat": 37.5575606280682,
    "lng": 126.85009543374,
    "url": "http://place.map.kakao.com/18371326",
    "category": "문화,예술 > 종교 > 기독교 > 교회",
    "region_keyword": "서울특별시"
  },
  {
    "id": "27335668",
    "name": "사랑하는교회",
    "address": "서울 송파구 오금동 28",
    "roadAddress": "서울 송파구 위례성대로22길 27-22",
    "phone": "02-586-3079",
    "lat": 37.50737903313648,
    "lng": 127.13129976405467,
    "url": "http://place.map.kakao.com/27335668",
    "category": "문화,예술 > 종교 > 기독교 > 교회",
    "region_keyword": "서울특별시"
  },
  {
    "id": "12730013",
    "name": "강남교회",
    "address": "서울 동작구 노량진동 222-73",
    "roadAddress": "서울 동작구 만양로 76",
    "phone": "02-814-7606",
    "lat": 37.5103512961659,
    "lng": 126.945103244543,
    "url": "http://place.map.kakao.com/12730013",
    "category": "문화,예술 > 종교 > 기독교 > 교회",
    "region_keyword": "서울특별시"
  },
  {
    "id": "8903942",
    "name": "연동교회",
    "address": "서울 종로구 연지동 136-12",
    "roadAddress": "서울 종로구 김상옥로 37",
    "phone": "02-763-7244",
    "lat": 37.5736646781052,
    "lng": 127.001503308236,
    "url": "http://place.map.kakao.com/8903942",
    "category": "문화,예술 > 종교 > 기독교 > 교회",
    "region_keyword": "서울특별시 종로구"
  },
  {
    "id": "9675170",
    "name": "경동교회",
    "address": "서울 중구 장충동1가 26-6",
    "roadAddress": "서울 중구 장충단로 204",
    "phone": "02-2274-0161",
    "lat": 37.5630867788126,
    "lng": 127.007203087935,
    "url": "http://place.map.kakao.com/9675170",
    "category": "문화,예술 > 종교 > 기독교 > 교회",
    "region_keyword": "서울특별시"
  },
  {
    "id": "10393578",
    "name": "베다니교회",
    "address": "서울 구로구 구로동 169-2",
    "roadAddress": "서울 구로구 도림로20길 11",
    "phone": "02-838-0050",
    "lat": 37.4895414642503,
    "lng": 126.8924079844,
    "url": "http://place.map.kakao.com/10393578",
    "category": "문화,예술 > 종교 > 기독교 > 교회",
    "region_keyword": "서울특별시"
  },
  {
    "id": "11104591",
    "name": "염광교회",
    "address": "서울 도봉구 창동 662-59",
    "roadAddress": "서울 도봉구 도봉로120길 16",
    "phone": "02-908-9100",
    "lat": 37.6504986919634,
    "lng": 127.037435550106,
    "url": "http://place.map.kakao.com/11104591",
    "category": "문화,예술 > 종교 > 기독교 > 교회",
    "region_keyword": "서울특별시"
  },
  {
    "id": "9173028",
    "name": "신촌성결교회 성봉채플",
    "address": "서울 마포구 동교동 186-43",
    "roadAddress": "서울 마포구 신촌로12길 12",
    "phone": "02-3142-6080",
    "lat": 37.55587042502722,
    "lng": 126.93229931802674,
    "url": "http://place.map.kakao.com/9173028",
    "category": "문화,예술 > 종교 > 기독교 > 교회",
    "region_keyword": "서울특별시"
  },
  {
    "id": "25777044",
    "name": "신용산교회",
    "address": "서울 용산구 한강로3가 63-391",
    "roadAddress": "서울 용산구 서빙고로 17",
    "phone": "02-794-7770",
    "lat": 37.52610353140324,
    "lng": 126.9668452801382,
    "url": "http://place.map.kakao.com/25777044",
    "category": "문화,예술 > 종교 > 기독교 > 교회",
    "region_keyword": "서울특별시"
  },
  {
    "id": "12519611",
    "name": "은평제일교회",
    "address": "서울 은평구 진관동 20-3",
    "roadAddress": "서울 은평구 진관3로 46",
    "phone": "02-353-2829",
    "lat": 37.6405640504038,
    "lng": 126.921440687136,
    "url": "http://place.map.kakao.com/12519611",
    "category": "문화,예술 > 종교 > 기독교 > 교회",
    "region_keyword": "서울특별시"
  },
  {
    "id": "7998770",
    "name": "순복음강남교회",
    "address": "서울 강남구 역삼동 833-6",
    "roadAddress": "서울 강남구 역삼로8길 12",
    "phone": "02-3469-4600",
    "lat": 37.4932762633433,
    "lng": 127.033390109168,
    "url": "http://place.map.kakao.com/7998770",
    "category": "문화,예술 > 종교 > 기독교 > 교회",
    "region_keyword": "서울특별시"
  },
  {
    "id": "8233714",
    "name": "고척교회",
    "address": "서울 구로구 고척동 172-6",
    "roadAddress": "서울 구로구 중앙로 79",
    "phone": "02-2686-5871",
    "lat": 37.5044003472736,
    "lng": 126.860859970872,
    "url": "http://place.map.kakao.com/8233714",
    "category": "문화,예술 > 종교 > 기독교 > 교회",
    "region_keyword": "서울특별시"
  },
  {
    "id": "14853734",
    "name": "양광교회",
    "address": "서울 은평구 녹번동 129-1",
    "roadAddress": "서울 은평구 진흥로 176",
    "phone": "02-355-0682",
    "lat": 37.608162070097016,
    "lng": 126.92887700550612,
    "url": "http://place.map.kakao.com/14853734",
    "category": "문화,예술 > 종교 > 기독교 > 교회",
    "region_keyword": "서울특별시"
  },
  {
    "id": "9474549",
    "name": "충신교회",
    "address": "서울 용산구 이촌동 302-67",
    "roadAddress": "서울 용산구 이촌로 188",
    "phone": "02-793-7740",
    "lat": 37.5211609528358,
    "lng": 126.968009225565,
    "url": "http://place.map.kakao.com/9474549",
    "category": "문화,예술 > 종교 > 기독교 > 교회",
    "region_keyword": "서울특별시"
  },
  {
    "id": "23465934",
    "name": "꽃재교회",
    "address": "서울 성동구 하왕십리동 1070-5",
    "roadAddress": "서울 성동구 마장로 164",
    "phone": "02-2299-5412",
    "lat": 37.5667705977288,
    "lng": 127.027817694009,
    "url": "http://place.map.kakao.com/23465934",
    "category": "문화,예술 > 종교 > 기독교 > 교회",
    "region_keyword": "서울특별시"
  },
  {
    "id": "10317403",
    "name": "왕십리교회",
    "address": "서울 성동구 상왕십리동 816-4",
    "roadAddress": "서울 성동구 난계로 160",
    "phone": "02-2299-1011",
    "lat": 37.56600378593255,
    "lng": 127.02400519240872,
    "url": "http://place.map.kakao.com/10317403",
    "category": "문화,예술 > 종교 > 기독교 > 교회",
    "region_keyword": "서울특별시"
  },
  {
    "id": "8208880",
    "name": "남포교회",
    "address": "서울 송파구 잠실동 85",
    "roadAddress": "서울 송파구 올림픽로4길 17",
    "phone": "02-415-1323",
    "lat": 37.50879007712907,
    "lng": 127.07707960730838,
    "url": "http://place.map.kakao.com/8208880",
    "category": "문화,예술 > 종교 > 기독교 > 교회",
    "region_keyword": "서울특별시"
  },
  {
    "id": "9977633",
    "name": "종교교회",
    "address": "서울 종로구 도렴동 32",
    "roadAddress": "서울 종로구 사직로8길 48",
    "phone": "02-6322-2100",
    "lat": 37.5738095657131,
    "lng": 126.973900345239,
    "url": "http://place.map.kakao.com/9977633",
    "category": "문화,예술 > 종교 > 기독교 > 교회",
    "region_keyword": "서울특별시 종로구 당주동"
  },
  {
    "id": "8883955",
    "name": "내수동교회",
    "address": "서울 종로구 내수동 110-8",
    "roadAddress": "서울 종로구 경희궁2길 5-6",
    "phone": "02-737-6351",
    "lat": 37.573250232545945,
    "lng": 126.97083960458107,
    "url": "http://place.map.kakao.com/8883955",
    "category": "문화,예술 > 종교 > 기독교 > 교회",
    "region_keyword": "서울특별시 종로구 내수동"
  },
  {
    "id": "7827350",
    "name": "예능교회",
    "address": "서울 종로구 평창동 156",
    "roadAddress": "서울 종로구 평창문화로 81-5",
    "phone": "02-379-8855",
    "lat": 37.6071560615412,
    "lng": 126.969598725263,
    "url": "http://place.map.kakao.com/7827350",
    "category": "문화,예술 > 종교 > 기독교 > 교회",
    "region_keyword": "서울특별시 종로구 청운동"
  },
  {
    "id": "16269369",
    "name": "동신교회",
    "address": "서울 종로구 창신동 432",
    "roadAddress": "서울 종로구 종로44길 43",
    "phone": "02-764-1181",
    "lat": 37.57097000095533,
    "lng": 127.0129610384729,
    "url": "http://place.map.kakao.com/16269369",
    "category": "문화,예술 > 종교 > 기독교 > 교회",
    "region_keyword": "서울특별시 종로구"
  },
  {
    "id": "8283807",
    "name": "동숭교회",
    "address": "서울 종로구 동숭동 195-6",
    "roadAddress": "서울 종로구 이화장길 94",
    "phone": "02-743-0017",
    "lat": 37.5793048133456,
    "lng": 127.004845364879,
    "url": "http://place.map.kakao.com/8283807",
    "category": "문화,예술 > 종교 > 기독교 > 교회",
    "region_keyword": "서울특별시 종로구"
  },
  {
    "id": "23288778",
    "name": "서대문교회",
    "address": "서울 종로구 송월동 148",
    "roadAddress": "서울 종로구 통일로8길 16",
    "phone": "02-360-8900",
    "lat": 37.569421382055,
    "lng": 126.965557178343,
    "url": "http://place.map.kakao.com/23288778",
    "category": "문화,예술 > 종교 > 기독교 > 교회",
    "region_keyword": "서울특별시 종로구 당주동"
  },
  {
    "id": "8535144",
    "name": "초동교회",
    "address": "서울 종로구 돈의동 114-1",
    "roadAddress": "서울 종로구 돈화문로5가길 23",
    "phone": "02-765-0528",
    "lat": 37.5717578581344,
    "lng": 126.991252055847,
    "url": "http://place.map.kakao.com/8535144",
    "category": "문화,예술 > 종교 > 기독교 > 교회",
    "region_keyword": "서울특별시 종로구 궁정동"
  },
  {
    "id": "12447935",
    "name": "혜성교회",
    "address": "서울 종로구 혜화동 5-119",
    "roadAddress": "",
    "phone": "02-763-0191",
    "lat": 37.5912520808236,
    "lng": 126.99977354489131,
    "url": "http://place.map.kakao.com/12447935",
    "category": "문화,예술 > 종교 > 기독교 > 교회",
    "region_keyword": "서울특별시 종로구"
  },
  {
    "id": "9876569",
    "name": "서울중앙교회",
    "address": "서울 종로구 인의동 59-6",
    "roadAddress": "서울 종로구 창경궁로 129-11",
    "phone": "02-763-8392",
    "lat": 37.57386285769525,
    "lng": 126.99660396336023,
    "url": "http://place.map.kakao.com/9876569",
    "category": "문화,예술 > 종교 > 기독교 > 교회",
    "region_keyword": "서울특별시 종로구"
  },
  {
    "id": "11148283",
    "name": "중앙성결교회",
    "address": "서울 종로구 종로6가 11-1",
    "roadAddress": "서울 종로구 충신길 22",
    "phone": "02-765-1511",
    "lat": 37.5739310957645,
    "lng": 127.008222944214,
    "url": "http://place.map.kakao.com/11148283",
    "category": "문화,예술 > 종교 > 기독교 > 교회",
    "region_keyword": "서울특별시 종로구"
  },
  {
    "id": "27182213",
    "name": "중앙교회",
    "address": "서울 종로구 인사동 194-4",
    "roadAddress": "서울 종로구 인사동5길 25",
    "phone": "02-730-6711",
    "lat": 37.5719482788595,
    "lng": 126.985306857661,
    "url": "http://place.map.kakao.com/27182213",
    "category": "문화,예술 > 종교 > 기독교 > 교회",
    "region_keyword": "서울특별시 종로구 당주동"
  },
  {
    "id": "21641528",
    "name": "안동교회",
    "address": "서울 종로구 안국동 27",
    "roadAddress": "서울 종로구 윤보선길 57",
    "phone": "02-733-3395",
    "lat": 37.5783991141256,
    "lng": 126.983163693135,
    "url": "http://place.map.kakao.com/21641528",
    "category": "문화,예술 > 종교 > 기독교 > 교회",
    "region_keyword": "서울특별시 종로구 당주동"
  },
  {
    "id": "8879773",
    "name": "남부교회",
    "address": "서울 종로구 창신동 17-4",
    "roadAddress": "서울 종로구 지봉로 101-5",
    "phone": "02-745-1903",
    "lat": 37.57892555659694,
    "lng": 127.0148869684123,
    "url": "http://place.map.kakao.com/8879773",
    "category": "문화,예술 > 종교 > 기독교 > 교회",
    "region_keyword": "서울특별시 종로구"
  },
  {
    "id": "10549788",
    "name": "숭인교회",
    "address": "서울 종로구 숭인동 20-158",
    "roadAddress": "서울 종로구 낙산길 258",
    "phone": "02-742-7571",
    "lat": 37.5818808016291,
    "lng": 127.015003034467,
    "url": "http://place.map.kakao.com/10549788",
    "category": "문화,예술 > 종교 > 기독교 > 교회",
    "region_keyword": "서울특별시 종로구"
  },
  {
    "id": "8332701",
    "name": "명륜교회",
    "address": "서울 종로구 명륜1가 46-7",
    "roadAddress": "서울 종로구 혜화로3길 6",
    "phone": "02-762-4595",
    "lat": 37.5863506813504,
    "lng": 126.999750915715,
    "url": "http://place.map.kakao.com/8332701",
    "category": "문화,예술 > 종교 > 기독교 > 교회",
    "region_keyword": "서울특별시 종로구"
  },
  {
    "id": "10617552",
    "name": "옥인교회",
    "address": "서울 종로구 옥인동 18",
    "roadAddress": "서울 종로구 자하문로 69",
    "phone": "02-735-3981",
    "lat": 37.5822167745307,
    "lng": 126.97022928133,
    "url": "http://place.map.kakao.com/10617552",
    "category": "문화,예술 > 종교 > 기독교 > 교회",
    "region_keyword": "서울특별시 종로구 당주동"
  },
  {
    "id": "7971201",
    "name": "승동교회",
    "address": "서울 종로구 인사동 137",
    "roadAddress": "서울 종로구 인사동길 7-1",
    "phone": "02-732-2341",
    "lat": 37.5715843694564,
    "lng": 126.98607101411172,
    "url": "http://place.map.kakao.com/7971201",
    "category": "문화,예술 > 종교 > 기독교 > 교회",
    "region_keyword": "서울특별시 종로구 당주동"
  },
  {
    "id": "27366895",
    "name": "세검정교회",
    "address": "서울 종로구 홍지동 94-3",
    "roadAddress": "서울 종로구 자하문로 310",
    "phone": "02-395-2541",
    "lat": 37.600255913534156,
    "lng": 126.95939963413863,
    "url": "http://place.map.kakao.com/27366895",
    "category": "문화,예술 > 종교 > 기독교 > 교회",
    "region_keyword": "서울특별시 종로구 청운동"
  },
  {
    "id": "8904649",
    "name": "원남교회",
    "address": "서울 종로구 원남동 24-10",
    "roadAddress": "서울 종로구 율곡로 183",
    "phone": "",
    "lat": 37.5760937651861,
    "lng": 126.999012855902,
    "url": "http://place.map.kakao.com/8904649",
    "category": "문화,예술 > 종교 > 기독교 > 교회",
    "region_keyword": "서울특별시 종로구"
  },
  {
    "id": "9841394",
    "name": "승동교회",
    "address": "서울 종로구 필운동 32-27",
    "roadAddress": "서울 종로구 사직로9가길 28",
    "phone": "02-736-1177",
    "lat": 37.5773004452604,
    "lng": 126.96828408834,
    "url": "http://place.map.kakao.com/9841394",
    "category": "문화,예술 > 종교 > 기독교 > 교회",
    "region_keyword": "서울특별시 종로구 당주동"
  },
  {
    "id": "8297459",
    "name": "동인교회",
    "address": "서울 종로구 창신동 670",
    "roadAddress": "서울 종로구 낙산성곽1길 7",
    "phone": "02-763-6993",
    "lat": 37.5723740678279,
    "lng": 127.009658135928,
    "url": "http://place.map.kakao.com/8297459",
    "category": "문화,예술 > 종교 > 기독교 > 교회",
    "region_keyword": "서울특별시 종로구"
  },
  {
    "id": "7998197",
    "name": "양의문교회",
    "address": "서울 종로구 사직동 304-43",
    "roadAddress": "서울 종로구 송월1길 73-18",
    "phone": "02-733-5252",
    "lat": 37.5733962949723,
    "lng": 126.964618047575,
    "url": "http://place.map.kakao.com/7998197",
    "category": "문화,예술 > 종교 > 기독교 > 교회",
    "region_keyword": "서울특별시 종로구 당주동"
  },
  {
    "id": "9026201",
    "name": "명륜중앙교회",
    "address": "서울 종로구 명륜2가 111",
    "roadAddress": "서울 종로구 성균관로6길 8",
    "phone": "02-762-8860",
    "lat": 37.584757706648546,
    "lng": 126.9978669782104,
    "url": "http://place.map.kakao.com/9026201",
    "category": "문화,예술 > 종교 > 기독교 > 교회",
    "region_keyword": "서울특별시 종로구"
  },
  {
    "id": "8202679",
    "name": "평동교회",
    "address": "서울 종로구 행촌동 211-5",
    "roadAddress": "서울 종로구 송월길 140",
    "phone": "02-730-8002",
    "lat": 37.5717702332035,
    "lng": 126.962458998084,
    "url": "http://place.map.kakao.com/8202679",
    "category": "문화,예술 > 종교 > 기독교 > 교회",
    "region_keyword": "서울특별시 종로구 당주동"
  },
  {
    "id": "9589563",
    "name": "초원교회",
    "address": "서울 종로구 창신동 197-1",
    "roadAddress": "서울 종로구 종로53길 21-6",
    "phone": "02-763-6410",
    "lat": 37.57332249783271,
    "lng": 127.01297276620372,
    "url": "http://place.map.kakao.com/9589563",
    "category": "문화,예술 > 종교 > 기독교 > 교회",
    "region_keyword": "서울특별시 종로구"
  },
  {
    "id": "23881748",
    "name": "동대문제일교회",
    "address": "서울 종로구 숭인동 1192",
    "roadAddress": "서울 종로구 보문로3길 24",
    "phone": "02-926-9270",
    "lat": 37.5770610888618,
    "lng": 127.022532534592,
    "url": "http://place.map.kakao.com/23881748",
    "category": "문화,예술 > 종교 > 기독교 > 교회",
    "region_keyword": "서울특별시 종로구"
  },
  {
    "id": "8596510",
    "name": "창신성결교회",
    "address": "서울 종로구 창신동 138-34",
    "roadAddress": "서울 종로구 창신5길 22",
    "phone": "",
    "lat": 37.5736172275001,
    "lng": 127.011985705927,
    "url": "http://place.map.kakao.com/8596510",
    "category": "문화,예술 > 종교 > 기독교 > 교회",
    "region_keyword": "서울특별시 종로구"
  },
  {
    "id": "10650154",
    "name": "서울영천교회",
    "address": "서울 종로구 행촌동 209-15",
    "roadAddress": "서울 종로구 통일로12길 14",
    "phone": "02-736-6528",
    "lat": 37.5732435739368,
    "lng": 126.960357261376,
    "url": "http://place.map.kakao.com/10650154",
    "category": "문화,예술 > 종교 > 기독교 > 교회",
    "region_keyword": "서울특별시 종로구 당주동"
  },
  {
    "id": "8625429",
    "name": "혜명교회",
    "address": "서울 종로구 명륜4가 86-1",
    "roadAddress": "서울 종로구 대학로11길 6",
    "phone": "02-763-1236",
    "lat": 37.5824475722417,
    "lng": 127.001263470679,
    "url": "http://place.map.kakao.com/8625429",
    "category": "문화,예술 > 종교 > 기독교 > 교회",
    "region_keyword": "서울특별시 종로구"
  },
  {
    "id": "17115951",
    "name": "자교교회",
    "address": "서울 종로구 창성동 156",
    "roadAddress": "서울 종로구 자하문로 56",
    "phone": "02-738-5803",
    "lat": 37.5811466973611,
    "lng": 126.97145692816,
    "url": "http://place.map.kakao.com/17115951",
    "category": "문화,예술 > 종교 > 기독교 > 교회",
    "region_keyword": "서울특별시 종로구 당주동"
  },
  {
    "id": "12633425",
    "name": "영락농인교회",
    "address": "서울 종로구 행촌동 1-31",
    "roadAddress": "서울 종로구 사직로 27",
    "phone": "",
    "lat": 37.57271475613197,
    "lng": 126.96335053585697,
    "url": "http://place.map.kakao.com/12633425",
    "category": "문화,예술 > 종교 > 기독교 > 교회",
    "region_keyword": "서울특별시 종로구 당주동"
  },
  {
    "id": "9400770",
    "name": "종로교회",
    "address": "서울 종로구 이화동 27-1",
    "roadAddress": "서울 종로구 이화장1가길 10",
    "phone": "02-762-5526",
    "lat": 37.5770450912051,
    "lng": 127.005501813474,
    "url": "http://place.map.kakao.com/9400770",
    "category": "문화,예술 > 종교 > 기독교 > 교회",
    "region_keyword": "서울특별시 종로구"
  },
  {
    "id": "7926215",
    "name": "삼청교회",
    "address": "서울 종로구 팔판동 49-1",
    "roadAddress": "서울 종로구 삼청로 77",
    "phone": "02-734-1054",
    "lat": 37.5826659675899,
    "lng": 126.981473571234,
    "url": "http://place.map.kakao.com/7926215",
    "category": "문화,예술 > 종교 > 기독교 > 교회",
    "region_keyword": "서울특별시 종로구 도렴동"
  },
  {
    "id": "1447195259",
    "name": "라이프처치(라이프교회)",
    "address": "서울 종로구 연지동 1-1",
    "roadAddress": "서울 종로구 율곡로 190",
    "phone": "02-766-2831",
    "lat": 37.5757306683764,
    "lng": 126.99981321332,
    "url": "http://place.map.kakao.com/1447195259",
    "category": "문화,예술 > 종교 > 기독교 > 교회",
    "region_keyword": "서울특별시 종로구"
  },
  {
    "id": "23885562",
    "name": "예수그리스도 후기성도교회",
    "address": "서울 종로구 청운동 5",
    "roadAddress": "서울 종로구 자하문로 152",
    "phone": "02-720-8001",
    "lat": 37.5891755119813,
    "lng": 126.968188470595,
    "url": "http://place.map.kakao.com/23885562",
    "category": "문화,예술 > 종교 > 기독교 > 교회",
    "region_keyword": "서울특별시 종로구 필운동"
  },
  {
    "id": "12447662",
    "name": "궁정교회",
    "address": "서울 종로구 청운동 89-111",
    "roadAddress": "서울 종로구 자하문로28길 16",
    "phone": "02-735-1608",
    "lat": 37.5853418875974,
    "lng": 126.972148224234,
    "url": "http://place.map.kakao.com/12447662",
    "category": "문화,예술 > 종교 > 기독교 > 교회",
    "region_keyword": "서울특별시 종로구 내자동"
  },
  {
    "id": "8763154",
    "name": "경복교회",
    "address": "서울 종로구 신교동 2-68",
    "roadAddress": "서울 종로구 필운대로13길 9",
    "phone": "02-735-5809",
    "lat": 37.58433409814134,
    "lng": 126.96681041478807,
    "url": "http://place.map.kakao.com/8763154",
    "category": "문화,예술 > 종교 > 기독교 > 교회",
    "region_keyword": "서울특별시 종로구 내자동"
  },
  {
    "id": "23882481",
    "name": "창현교회",
    "address": "서울 종로구 명륜3가 99-1",
    "roadAddress": "서울 종로구 창경궁로27길 49",
    "phone": "",
    "lat": 37.58390891354319,
    "lng": 126.99574306217241,
    "url": "http://place.map.kakao.com/23882481",
    "category": "문화,예술 > 종교 > 기독교 > 교회",
    "region_keyword": "서울특별시 종로구"
  },
  {
    "id": "10438629",
    "name": "사직동교회",
    "address": "서울 종로구 사직동 333-1",
    "roadAddress": "서울 종로구 경희궁3가길 15",
    "phone": "02-735-6712",
    "lat": 37.5726509547519,
    "lng": 126.966977475307,
    "url": "http://place.map.kakao.com/10438629",
    "category": "문화,예술 > 종교 > 기독교 > 교회",
    "region_keyword": "서울특별시 종로구 당주동"
  },
  {
    "id": "9426368",
    "name": "창신제일교회",
    "address": "서울 종로구 창신동 635-2",
    "roadAddress": "서울 종로구 창신7길 7",
    "phone": "02-3676-0012",
    "lat": 37.5756248260815,
    "lng": 127.010029864509,
    "url": "http://place.map.kakao.com/9426368",
    "category": "문화,예술 > 종교 > 기독교 > 교회",
    "region_keyword": "서울특별시 종로구"
  },
  {
    "id": "23882180",
    "name": "서울복음교회",
    "address": "서울 종로구 종로6가 210-1",
    "roadAddress": "서울 종로구 율곡로 264",
    "phone": "",
    "lat": 37.5733437448285,
    "lng": 127.006674297678,
    "url": "http://place.map.kakao.com/23882180",
    "category": "문화,예술 > 종교 > 기독교 > 교회",
    "region_keyword": "서울특별시 종로구"
  },
  {
    "id": "9298827",
    "name": "옥인제일교회",
    "address": "서울 종로구 옥인동 183-2",
    "roadAddress": "서울 종로구 옥인길 78",
    "phone": "02-732-9090",
    "lat": 37.582182818817,
    "lng": 126.964713517885,
    "url": "http://place.map.kakao.com/9298827",
    "category": "문화,예술 > 종교 > 기독교 > 교회",
    "region_keyword": "서울특별시 종로구 내자동"
  },
  {
    "id": "21704086",
    "name": "삼애교회",
    "address": "서울 종로구 부암동 333-12",
    "roadAddress": "서울 종로구 창의문로3길 27",
    "phone": "",
    "lat": 37.591485769651676,
    "lng": 126.96538962578518,
    "url": "http://place.map.kakao.com/21704086",
    "category": "문화,예술 > 종교 > 기독교 > 교회",
    "region_keyword": "서울특별시 종로구 옥인동"
  },
  {
    "id": "34515870",
    "name": "부암동교회",
    "address": "서울 종로구 부암동 237-29",
    "roadAddress": "서울 종로구 백석동길 11-4",
    "phone": "",
    "lat": 37.5932742937253,
    "lng": 126.965577892624,
    "url": "http://place.map.kakao.com/34515870",
    "category": "문화,예술 > 종교 > 기독교 > 교회",
    "region_keyword": "서울특별시 종로구 옥인동"
  },
  {
    "id": "12152003",
    "name": "서울교회",
    "address": "서울 종로구 옥인동 19-57",
    "roadAddress": "서울 종로구 자하문로17길 12-24",
    "phone": "02-732-3698",
    "lat": 37.58243556074361,
    "lng": 126.96962010183236,
    "url": "http://place.map.kakao.com/12152003",
    "category": "문화,예술 > 종교 > 기독교 > 교회",
    "region_keyword": "서울특별시 종로구 도렴동"
  },
  {
    "id": "525521499",
    "name": "예수뿐인교회",
    "address": "서울 종로구 필운동 12",
    "roadAddress": "서울 종로구 필운대로1길 34",
    "phone": "02-323-3238",
    "lat": 37.57939889577307,
    "lng": 126.96521068977741,
    "url": "http://place.map.kakao.com/525521499",
    "category": "문화,예술 > 종교 > 기독교 > 교회",
    "region_keyword": "서울특별시 종로구 당주동"
  },
  {
    "id": "8234645",
    "name": "광화문교회",
    "address": "서울 종로구 누하동 42-1",
    "roadAddress": "서울 종로구 자하문로9길 34-18",
    "phone": "",
    "lat": 37.5798558601688,
    "lng": 126.969021135497,
    "url": "http://place.map.kakao.com/8234645",
    "category": "문화,예술 > 종교 > 기독교 > 교회",
    "region_keyword": "서울특별시 종로구 도렴동"
  },
  {
    "id": "12443803",
    "name": "창의문교회",
    "address": "서울 종로구 홍지동 127-18",
    "roadAddress": "서울 종로구 자하문로 293-19",
    "phone": "02-379-4733",
    "lat": 37.59848486139292,
    "lng": 126.96026913584903,
    "url": "http://place.map.kakao.com/12443803",
    "category": "문화,예술 > 종교 > 기독교 > 교회",
    "region_keyword": "서울특별시 종로구 청운동"
  },
  {
    "id": "2068273821",
    "name": "서울교회",
    "address": "서울 종로구 필운동 33-1",
    "roadAddress": "서울 종로구 사직로9길 23",
    "phone": "",
    "lat": 37.577660638558,
    "lng": 126.967532241312,
    "url": "http://place.map.kakao.com/2068273821",
    "category": "문화,예술 > 종교 > 기독교 > 교회",
    "region_keyword": "서울특별시 종로구 당주동"
  },
  {
    "id": "23881826",
    "name": "숭동교회",
    "address": "서울 종로구 필운동 32-27",
    "roadAddress": "서울 종로구 사직로9가길 28",
    "phone": "",
    "lat": 37.5772824253771,
    "lng": 126.968284095983,
    "url": "http://place.map.kakao.com/23881826",
    "category": "문화,예술 > 종교 > 기독교 > 교회",
    "region_keyword": "서울특별시 종로구 당주동"
  },
  {
    "id": "8710929",
    "name": "세검정교회 목사관",
    "address": "서울 종로구 홍지동 94-3",
    "roadAddress": "서울 종로구 자하문로 310",
    "phone": "",
    "lat": 37.6002802406688,
    "lng": 126.959400753331,
    "url": "http://place.map.kakao.com/8710929",
    "category": "문화,예술 > 종교 > 기독교 > 교회",
    "region_keyword": "서울특별시 종로구 청운동"
  },
  {
    "id": "9157216",
    "name": "수도교회",
    "address": "서울 종로구 사직동 262-58",
    "roadAddress": "서울 종로구 인왕산로1길 11",
    "phone": "",
    "lat": 37.5749424774503,
    "lng": 126.964870890426,
    "url": "http://place.map.kakao.com/9157216",
    "category": "문화,예술 > 종교 > 기독교 > 교회",
    "region_keyword": "서울특별시 종로구 당주동"
  },
  {
    "id": "20710570",
    "name": "서울홍성교회",
    "address": "서울 서대문구 홍제동 286-30",
    "roadAddress": "서울 서대문구 포방터길 28",
    "phone": "02-391-4567",
    "lat": 37.5978652321875,
    "lng": 126.949183507648,
    "url": "http://place.map.kakao.com/20710570",
    "category": "문화,예술 > 종교 > 기독교 > 교회",
    "region_keyword": "서울특별시 종로구 청운동"
  },
  {
    "id": "10325985",
    "name": "덕수교회",
    "address": "서울 성북구 성북동 243-5",
    "roadAddress": "서울 성북구 성북로 127",
    "phone": "02-741-5161",
    "lat": 37.5941099188788,
    "lng": 126.994936270139,
    "url": "http://place.map.kakao.com/10325985",
    "category": "문화,예술 > 종교 > 기독교 > 교회",
    "region_keyword": "서울특별시 종로구 궁정동"
  },
  {
    "id": "97544591",
    "name": "제일사랑교회",
    "address": "서울 서대문구 홍제동 40-37",
    "roadAddress": "서울 서대문구 통일로20길 36",
    "phone": "",
    "lat": 37.5805843643219,
    "lng": 126.953981832536,
    "url": "http://place.map.kakao.com/97544591",
    "category": "문화,예술 > 종교 > 기독교 > 교회",
    "region_keyword": "서울특별시 종로구 옥인동"
  },
  {
    "id": "7873809",
    "name": "문화촌제일교회",
    "address": "서울 서대문구 홍제동 283-3",
    "roadAddress": "서울 서대문구 세검정로 104",
    "phone": "02-379-7323",
    "lat": 37.596469808794446,
    "lng": 126.9496781631813,
    "url": "http://place.map.kakao.com/7873809",
    "category": "문화,예술 > 종교 > 기독교 > 교회",
    "region_keyword": "서울특별시 종로구 청운동"
  },
  {
    "id": "17217628",
    "name": "독립문교회",
    "address": "서울 종로구 행촌동 210-167",
    "roadAddress": "서울 종로구 사직로1나길 32",
    "phone": "02-736-2780",
    "lat": 37.5746211279477,
    "lng": 126.962923960729,
    "url": "http://place.map.kakao.com/17217628",
    "category": "문화,예술 > 종교 > 기독교 > 교회",
    "region_keyword": "서울특별시 종로구 당주동"
  },
  {
    "id": "147327305",
    "name": "홍제감리교회",
    "address": "서울 서대문구 홍제동 476",
    "roadAddress": "서울 서대문구 세무서길 28",
    "phone": "02-396-5561",
    "lat": 37.589138578969745,
    "lng": 126.9459217867838,
    "url": "http://place.map.kakao.com/147327305",
    "category": "문화,예술 > 종교 > 기독교 > 교회",
    "region_keyword": "서울특별시 종로구 청운동"
  },
  {
    "id": "11055868",
    "name": "서울삼덕교회",
    "address": "서울 서대문구 홍은동 8-417",
    "roadAddress": "서울 서대문구 포방터2가길 17",
    "phone": "02-395-8224",
    "lat": 37.5995920029124,
    "lng": 126.950292087013,
    "url": "http://place.map.kakao.com/11055868",
    "category": "문화,예술 > 종교 > 기독교 > 교회",
    "region_keyword": "서울특별시 종로구 청운동"
  },
  {
    "id": "7938254",
    "name": "서대문성지교회",
    "address": "서울 서대문구 홍제동 9-47",
    "roadAddress": "서울 서대문구 문화촌4길 10",
    "phone": "",
    "lat": 37.5918544657048,
    "lng": 126.950713914466,
    "url": "http://place.map.kakao.com/7938254",
    "category": "문화,예술 > 종교 > 기독교 > 교회",
    "region_keyword": "서울특별시 종로구 청운동"
  },
  {
    "id": "11653735",
    "name": "서울동성교회",
    "address": "서울 서대문구 홍제동 6-67",
    "roadAddress": "서울 서대문구 세검정로4가길 1",
    "phone": "02-394-7490",
    "lat": 37.59445600160796,
    "lng": 126.94946437772205,
    "url": "http://place.map.kakao.com/11653735",
    "category": "문화,예술 > 종교 > 기독교 > 교회",
    "region_keyword": "서울특별시 종로구 청운동"
  },
  {
    "id": "9828166",
    "name": "문화촌성결교회",
    "address": "서울 서대문구 홍제동 273-41",
    "roadAddress": "서울 서대문구 문화촌길 6-4",
    "phone": "02-379-2311",
    "lat": 37.5928047428771,
    "lng": 126.947986711902,
    "url": "http://place.map.kakao.com/9828166",
    "category": "문화,예술 > 종교 > 기독교 > 교회",
    "region_keyword": "서울특별시 종로구 청운동"
  },
  {
    "id": "14851519",
    "name": "계동교회",
    "address": "서울 종로구 계동 74-1",
    "roadAddress": "서울 종로구 계동길 81",
    "phone": "02-763-1806",
    "lat": 37.5810052317529,
    "lng": 126.986627394516,
    "url": "http://place.map.kakao.com/14851519",
    "category": "문화,예술 > 종교 > 기독교 > 교회",
    "region_keyword": "서울특별시 종로구 적선동"
  },
  {
    "id": "9121165",
    "name": "삼덕교회",
    "address": "서울 서대문구 현저동 204",
    "roadAddress": "서울 서대문구 독립문공원길 20",
    "phone": "02-363-7778",
    "lat": 37.5723888595985,
    "lng": 126.958691425398,
    "url": "http://place.map.kakao.com/9121165",
    "category": "문화,예술 > 종교 > 기독교 > 교회",
    "region_keyword": "서울특별시 종로구 내자동"
  },
  {
    "id": "12402593",
    "name": "서울보은교회",
    "address": "서울 서대문구 홍제동 174-3",
    "roadAddress": "",
    "phone": "02-736-5383",
    "lat": 37.5882483914623,
    "lng": 126.94590657961,
    "url": "http://place.map.kakao.com/12402593",
    "category": "문화,예술 > 종교 > 기독교 > 교회",
    "region_keyword": "서울특별시 종로구 청운동"
  },
  {
    "id": "26517569",
    "name": "구세군영천교회",
    "address": "서울 종로구 홍파동 1-1",
    "roadAddress": "서울 종로구 송월1길 44-9",
    "phone": "",
    "lat": 37.5722251539481,
    "lng": 126.965130259921,
    "url": "http://place.map.kakao.com/26517569",
    "category": "문화,예술 > 종교 > 기독교 > 교회",
    "region_keyword": "서울특별시 종로구 당주동"
  },
  {
    "id": "27010178",
    "name": "정동제일교회",
    "address": "서울 종로구 행촌동 41-1",
    "roadAddress": "서울 종로구 사직로 21",
    "phone": "",
    "lat": 37.5727144758396,
    "lng": 126.962458524116,
    "url": "http://place.map.kakao.com/27010178",
    "category": "문화,예술 > 종교 > 기독교 > 교회",
    "region_keyword": "서울특별시 종로구 당주동"
  },
  {
    "id": "61802900",
    "name": "파고다감리교회",
    "address": "서울 종로구 무악동 82",
    "roadAddress": "서울 종로구 통일로 246-10",
    "phone": "",
    "lat": 37.5743873770365,
    "lng": 126.959009551163,
    "url": "http://place.map.kakao.com/61802900",
    "category": "문화,예술 > 종교 > 기독교 > 교회",
    "region_keyword": "서울특별시 종로구 필운동"
  },
  {
    "id": "1057785355",
    "name": "형란교회",
    "address": "서울 종로구 신문로2가 1-96",
    "roadAddress": "서울 종로구 경희궁길 28",
    "phone": "",
    "lat": 37.5724492321549,
    "lng": 126.97077539342,
    "url": "http://place.map.kakao.com/1057785355",
    "category": "문화,예술 > 종교 > 기독교 > 교회",
    "region_keyword": "서울특별시 종로구 당주동"
  },
  {
    "id": "13076267",
    "name": "독립문감리교회",
    "address": "서울 종로구 무악동 63-9",
    "roadAddress": "서울 종로구 통일로 266",
    "phone": "02-720-5431",
    "lat": 37.575876829657,
    "lng": 126.956787667117,
    "url": "http://place.map.kakao.com/13076267",
    "category": "문화,예술 > 종교 > 기독교 > 교회",
    "region_keyword": "서울특별시 종로구 필운동"
  },
  {
    "id": "8372841",
    "name": "샬롬교회",
    "address": "서울 종로구 신문로2가 2-14",
    "roadAddress": "서울 종로구 경희궁1길 19-1",
    "phone": "02-722-3377",
    "lat": 37.57179756459761,
    "lng": 126.96978969268427,
    "url": "http://place.map.kakao.com/8372841",
    "category": "문화,예술 > 종교 > 기독교 > 교회",
    "region_keyword": "서울특별시 종로구 당주동"
  },
  {
    "id": "20528407",
    "name": "행복한교회",
    "address": "서울 종로구 행촌동 206-29",
    "roadAddress": "서울 종로구 사직로 7",
    "phone": "02-722-5119",
    "lat": 37.5727248748168,
    "lng": 126.961181628622,
    "url": "http://place.map.kakao.com/20528407",
    "category": "문화,예술 > 종교 > 기독교 > 교회",
    "region_keyword": "서울특별시 종로구 내자동"
  },
  {
    "id": "9619313",
    "name": "현저교회",
    "address": "서울 서대문구 현저동 1-191",
    "roadAddress": "서울 서대문구 통일로 287-40",
    "phone": "",
    "lat": 37.577007561414,
    "lng": 126.954350821158,
    "url": "http://place.map.kakao.com/9619313",
    "category": "문화,예술 > 종교 > 기독교 > 교회",
    "region_keyword": "서울특별시 종로구 필운동"
  },
  {
    "id": "23283215",
    "name": "소망교회",
    "address": "서울 서대문구 홍제동 47-24",
    "roadAddress": "서울 서대문구 통일로19길 5",
    "phone": "",
    "lat": 37.5804048995551,
    "lng": 126.951319217557,
    "url": "http://place.map.kakao.com/23283215",
    "category": "문화,예술 > 종교 > 기독교 > 교회",
    "region_keyword": "서울특별시 종로구 옥인동"
  },
  {
    "id": "10506954",
    "name": "새샘교회",
    "address": "서울 서대문구 홍제동 20-4",
    "roadAddress": "서울 서대문구 통일로28길 12",
    "phone": "02-720-7040",
    "lat": 37.5836337374591,
    "lng": 126.950542717649,
    "url": "http://place.map.kakao.com/10506954",
    "category": "문화,예술 > 종교 > 기독교 > 교회",
    "region_keyword": "서울특별시 종로구 옥인동"
  },
  {
    "id": "1878470884",
    "name": "소허당",
    "address": "서울 종로구 안국동 28",
    "roadAddress": "서울 종로구 윤보선길 51",
    "phone": "",
    "lat": 37.5783306725596,
    "lng": 126.983403709471,
    "url": "http://place.map.kakao.com/1878470884",
    "category": "문화,예술 > 종교 > 기독교 > 교회",
    "region_keyword": "서울특별시 종로구 도렴동"
  },
  {
    "id": "1504035988",
    "name": "믿음으로사는교회",
    "address": "서울 서대문구 홍제동 27-1",
    "roadAddress": "서울 서대문구 통일로 356",
    "phone": "",
    "lat": 37.5822048230189,
    "lng": 126.950688576636,
    "url": "http://place.map.kakao.com/1504035988",
    "category": "문화,예술 > 종교 > 기독교 > 교회",
    "region_keyword": "서울특별시 종로구 옥인동"
  },
  {
    "id": "23285808",
    "name": "사랑하는교회 교육관",
    "address": "서울 서대문구 홍제동 51-9",
    "roadAddress": "서울 서대문구 통일로19길 13",
    "phone": "",
    "lat": 37.5800984719186,
    "lng": 126.951102052618,
    "url": "http://place.map.kakao.com/23285808",
    "category": "문화,예술 > 종교 > 기독교 > 교회",
    "region_keyword": "서울특별시 종로구 옥인동"
  },
  {
    "id": "353984556",
    "name": "홍제은혜교회",
    "address": "서울 서대문구 홍제동 24-1",
    "roadAddress": "서울 서대문구 통일로 366",
    "phone": "02-739-1881",
    "lat": 37.5830317713957,
    "lng": 126.950298571277,
    "url": "http://place.map.kakao.com/353984556",
    "category": "문화,예술 > 종교 > 기독교 > 교회",
    "region_keyword": "서울특별시 종로구 옥인동"
  },
  {
    "id": "26966899",
    "name": "제칠일안식일예수재림교서울중앙교회",
    "address": "서울 종로구 견지동 74-2",
    "roadAddress": "서울 종로구 인사동11길 24",
    "phone": "02-735-5681",
    "lat": 37.5741680687498,
    "lng": 126.983336712274,
    "url": "http://place.map.kakao.com/26966899",
    "category": "문화,예술 > 종교 > 기독교 > 교회",
    "region_keyword": "서울특별시 종로구 당주동"
  },
  {
    "id": "9428307",
    "name": "창덕제일교회",
    "address": "서울 종로구 원서동 70-4",
    "roadAddress": "서울 종로구 창덕궁길 103-6",
    "phone": "02-764-0817",
    "lat": 37.5822524506245,
    "lng": 126.988986549577,
    "url": "http://place.map.kakao.com/9428307",
    "category": "문화,예술 > 종교 > 기독교 > 교회",
    "region_keyword": "서울특별시 종로구 창성동"
  },
  {
    "id": "268043617",
    "name": "새문안교회 한국교회음악교육원",
    "address": "서울 종로구 신문로1가 240",
    "roadAddress": "서울 종로구 새문안로 79",
    "phone": "02-723-4961",
    "lat": 37.5707929630367,
    "lng": 126.973579919668,
    "url": "http://place.map.kakao.com/268043617",
    "category": "문화,예술 > 종교 > 기독교 > 교회",
    "region_keyword": "서울특별시 종로구 당주동"
  },
  {
    "id": "27586514",
    "name": "구세군서울제일교회",
    "address": "서울 중구 정동 1-66",
    "roadAddress": "서울 중구 덕수궁길 120",
    "phone": "02-735-0535",
    "lat": 37.56767193001,
    "lng": 126.97364893716,
    "url": "http://place.map.kakao.com/27586514",
    "category": "문화,예술 > 종교 > 기독교 > 교회",
    "region_keyword": "서울특별시 종로구 당주동"
  },
  {
    "id": "63795678",
    "name": "비커밍교회",
    "address": "서울 종로구 관훈동 21",
    "roadAddress": "서울 종로구 인사동길 34-1",
    "phone": "",
    "lat": 37.5738584255132,
    "lng": 126.985609861635,
    "url": "http://place.map.kakao.com/63795678",
    "category": "문화,예술 > 종교 > 기독교 > 교회",
    "region_keyword": "서울특별시 종로구 도렴동"
  },
  {
    "id": "10491507",
    "name": "석교감리교회",
    "address": "서울 서대문구 천연동 71",
    "roadAddress": "서울 서대문구 독립문로 35",
    "phone": "02-312-3721",
    "lat": 37.5690597880875,
    "lng": 126.96167705638,
    "url": "http://place.map.kakao.com/10491507",
    "category": "문화,예술 > 종교 > 기독교 > 교회",
    "region_keyword": "서울특별시 종로구 당주동"
  },
  {
    "id": "1462544893",
    "name": "중앙연회",
    "address": "서울 종로구 신문로1가 150",
    "roadAddress": "서울 종로구 세종대로 149",
    "phone": "02-399-3924",
    "lat": 37.5695717581911,
    "lng": 126.976138551791,
    "url": "http://place.map.kakao.com/1462544893",
    "category": "문화,예술 > 종교 > 기독교 > 교회",
    "region_keyword": "서울특별시 종로구 당주동"
  },
  {
    "id": "24047600",
    "name": "한성교회",
    "address": "서울 중구 정동 25-2",
    "roadAddress": "서울 중구 정동길 8",
    "phone": "",
    "lat": 37.5675987706964,
    "lng": 126.969189208481,
    "url": "http://place.map.kakao.com/24047600",
    "category": "문화,예술 > 종교 > 기독교 > 교회",
    "region_keyword": "서울특별시 종로구 당주동"
  },
  {
    "id": "467559908",
    "name": "재속프란치스코회 한국국가형제회",
    "address": "서울 중구 정동 17-1",
    "roadAddress": "서울 중구 정동길 9",
    "phone": "02-752-9839",
    "lat": 37.5674170141668,
    "lng": 126.970141223539,
    "url": "http://place.map.kakao.com/467559908",
    "category": "문화,예술 > 종교 > 기독교 > 교회",
    "region_keyword": "서울특별시 종로구 당주동"
  },
  {
    "id": "10508212",
    "name": "새길교회",
    "address": "서울 중구 의주로1가 25-10",
    "roadAddress": "서울 중구 통일로 114",
    "phone": "02-555-6959",
    "lat": 37.56523602198247,
    "lng": 126.96792247421914,
    "url": "http://place.map.kakao.com/10508212",
    "category": "문화,예술 > 종교 > 기독교 > 교회",
    "region_keyword": "서울특별시 종로구 당주동"
  },
  {
    "id": "149234426",
    "name": "새봄교회",
    "address": "서울 서대문구 냉천동 23",
    "roadAddress": "서울 서대문구 독립문로 65",
    "phone": "010-9102-8144",
    "lat": 37.56736127064078,
    "lng": 126.9640956943561,
    "url": "http://place.map.kakao.com/149234426",
    "category": "문화,예술 > 종교 > 기독교 > 교회",
    "region_keyword": "서울특별시 종로구 당주동"
  },
  {
    "id": "8531154",
    "name": "이화교회",
    "address": "서울 중구 순화동 1-1",
    "roadAddress": "서울 중구 통일로4길 30-1",
    "phone": "02-756-7612",
    "lat": 37.56444557044906,
    "lng": 126.97030426691003,
    "url": "http://place.map.kakao.com/8531154",
    "category": "문화,예술 > 종교 > 기독교 > 교회",
    "region_keyword": "서울특별시 종로구 당주동"
  },
  {
    "id": "1657567823",
    "name": "하나님의교회 세계복음선교협회 교육관",
    "address": "서울 서대문구 현저동 200",
    "roadAddress": "서울 서대문구 독립문공원길 13",
    "phone": "",
    "lat": 37.5719274157348,
    "lng": 126.958309070064,
    "url": "http://place.map.kakao.com/1657567823",
    "category": "문화,예술 > 종교 > 기독교 > 교회",
    "region_keyword": "서울특별시 종로구 내자동"
  },
  {
    "id": "1717969743",
    "name": "여의도순복음교회 서대문5교구기도처",
    "address": "서울 서대문구 천연동 4",
    "roadAddress": "서울 서대문구 통일로 173-4",
    "phone": "",
    "lat": 37.5692205539895,
    "lng": 126.962893811542,
    "url": "http://place.map.kakao.com/1717969743",
    "category": "문화,예술 > 종교 > 기독교 > 교회",
    "region_keyword": "서울특별시 종로구 누하동"
  },
  {
    "id": "21931217",
    "name": "영천교회",
    "address": "서울 서대문구 현저동 202",
    "roadAddress": "서울 서대문구 독립문공원길 99",
    "phone": "",
    "lat": 37.5730972371395,
    "lng": 126.954330568052,
    "url": "http://place.map.kakao.com/21931217",
    "category": "문화,예술 > 종교 > 기독교 > 교회",
    "region_keyword": "서울특별시 종로구 옥인동"
  },
  {
    "id": "14854077",
    "name": "서은교회",
    "address": "서울 서대문구 천연동 128-1",
    "roadAddress": "서울 서대문구 독립문로12길 17",
    "phone": "",
    "lat": 37.56789459163728,
    "lng": 126.96103811752131,
    "url": "http://place.map.kakao.com/14854077",
    "category": "문화,예술 > 종교 > 기독교 > 교회",
    "region_keyword": "서울특별시 종로구 당주동"
  },
  {
    "id": "840041502",
    "name": "사랑하는교회",
    "address": "서울 서대문구 천연동 98-16",
    "roadAddress": "서울 서대문구 독립문로8길 23",
    "phone": "",
    "lat": 37.56847728718796,
    "lng": 126.96029187172044,
    "url": "http://place.map.kakao.com/840041502",
    "category": "문화,예술 > 종교 > 기독교 > 교회",
    "region_keyword": "서울특별시 종로구 필운동"
  },
  {
    "id": "798375136",
    "name": "주사랑교회",
    "address": "서울 서대문구 홍제동 105-80",
    "roadAddress": "서울 서대문구 통일로34길 28-6",
    "phone": "02-734-1130",
    "lat": 37.5855848265812,
    "lng": 126.949452260451,
    "url": "http://place.map.kakao.com/798375136",
    "category": "문화,예술 > 종교 > 기독교 > 교회",
    "region_keyword": "서울특별시 종로구 옥인동"
  },
  {
    "id": "2044770605",
    "name": "금광교회",
    "address": "서울 서대문구 홍제동 92-1",
    "roadAddress": "서울 서대문구 통일로31길 3-2",
    "phone": "",
    "lat": 37.5841193745403,
    "lng": 126.948441093694,
    "url": "http://place.map.kakao.com/2044770605",
    "category": "문화,예술 > 종교 > 기독교 > 교회",
    "region_keyword": "서울특별시 종로구 옥인동"
  },
  {
    "id": "23890250",
    "name": "생명교회",
    "address": "서울 서대문구 홍제동 93-2",
    "roadAddress": "서울 서대문구 통일로 381",
    "phone": "",
    "lat": 37.5840835003683,
    "lng": 126.948821526495,
    "url": "http://place.map.kakao.com/23890250",
    "category": "문화,예술 > 종교 > 기독교 > 교회",
    "region_keyword": "서울특별시 종로구 옥인동"
  },
  {
    "id": "12356485",
    "name": "요나3일영성원",
    "address": "서울 서대문구 홍제동 459",
    "roadAddress": "서울 서대문구 세무서2길 60",
    "phone": "02-3216-7171",
    "lat": 37.58884707000336,
    "lng": 126.94886921577452,
    "url": "http://place.map.kakao.com/12356485",
    "category": "문화,예술 > 종교 > 기독교 > 교회",
    "region_keyword": "서울특별시 종로구 옥인동"
  },
  {
    "id": "10718104",
    "name": "정화교회",
    "address": "서울 서대문구 홍제동 123-8",
    "roadAddress": "서울 서대문구 홍제원4길 17",
    "phone": "02-730-8141",
    "lat": 37.5861085558455,
    "lng": 126.947959669985,
    "url": "http://place.map.kakao.com/10718104",
    "category": "문화,예술 > 종교 > 기독교 > 교회",
    "region_keyword": "서울특별시 종로구 옥인동"
  },
  {
    "id": "2027288132",
    "name": "꿈꾸는교회",
    "address": "서울 서대문구 홍제동 459",
    "roadAddress": "서울 서대문구 세무서2길 62",
    "phone": "",
    "lat": 37.588898562973235,
    "lng": 126.94918507544678,
    "url": "http://place.map.kakao.com/2027288132",
    "category": "문화,예술 > 종교 > 기독교 > 교회",
    "region_keyword": "서울특별시 종로구 옥인동"
  },
  {
    "id": "906098285",
    "name": "새문안교회 정문",
    "address": "서울 종로구 신문로1가 240",
    "roadAddress": "서울 종로구 새문안로 79",
    "phone": "",
    "lat": 37.57063438281043,
    "lng": 126.97355733641811,
    "url": "http://place.map.kakao.com/906098285",
    "category": "교통,수송 > 입출구",
    "region_keyword": "서울특별시 종로구 사직동"
  },
  {
    "id": "13725698",
    "name": "새문안교회 광화문빌딩",
    "address": "서울 종로구 당주동 145",
    "roadAddress": "서울 종로구 세종대로23길 47",
    "phone": "",
    "lat": 37.5714381028621,
    "lng": 126.973701945128,
    "url": "http://place.map.kakao.com/13725698",
    "category": "부동산 > 빌딩",
    "region_keyword": "서울특별시 종로구 사직동"
  },
  {
    "id": "937756637",
    "name": "새문안교회 주차장",
    "address": "서울 종로구 신문로1가 22-4",
    "roadAddress": "",
    "phone": "",
    "lat": 37.57065233642724,
    "lng": 126.97326301953773,
    "url": "http://place.map.kakao.com/937756637",
    "category": "교통,수송 > 교통시설 > 주차장",
    "region_keyword": "서울특별시 종로구 사직동"
  },
  {
    "id": "1160330296",
    "name": "광화문청년가정교회",
    "address": "서울 종로구 내수동 110-43",
    "roadAddress": "서울 종로구 경희궁2길 8-4",
    "phone": "",
    "lat": 37.5725115087159,
    "lng": 126.971214581872,
    "url": "http://place.map.kakao.com/1160330296",
    "category": "문화,예술 > 종교 > 통일교",
    "region_keyword": "서울특별시 종로구 내수동"
  },
  {
    "id": "8417571",
    "name": "감리교회 총회본부",
    "address": "서울 종로구 신문로1가 150",
    "roadAddress": "서울 종로구 세종대로 149",
    "phone": "",
    "lat": 37.5695897799292,
    "lng": 126.976147601622,
    "url": "http://place.map.kakao.com/8417571",
    "category": "문화,예술 > 종교 > 기독교",
    "region_keyword": "서울특별시 종로구 사직동"
  },
  {
    "id": "1371190331",
    "name": "내수동교회 교육관",
    "address": "서울 종로구 내수동 110-21",
    "roadAddress": "서울 종로구 경희궁2길 5-1",
    "phone": "",
    "lat": 37.572815941841,
    "lng": 126.970794494061,
    "url": "http://place.map.kakao.com/1371190331",
    "category": "문화,예술 > 종교 > 종교시설",
    "region_keyword": "서울특별시 종로구 내수동"
  },
  {
    "id": "324845370",
    "name": "수도교회 재윤교육관",
    "address": "서울 종로구 사직동 262-58",
    "roadAddress": "서울 종로구 인왕산로1길 11",
    "phone": "",
    "lat": 37.5752055960887,
    "lng": 126.964965857554,
    "url": "http://place.map.kakao.com/324845370",
    "category": "문화,예술 > 종교 > 종교시설",
    "region_keyword": "서울특별시 종로구 사직동"
  },
  {
    "id": "9220107",
    "name": "기독교대한감리회 교회학교전국연합회",
    "address": "서울 종로구 세종로 211",
    "roadAddress": "서울 종로구 세종대로 149",
    "phone": "",
    "lat": 37.5696222148487,
    "lng": 126.976143063486,
    "url": "http://place.map.kakao.com/9220107",
    "category": "문화,예술 > 종교 > 기독교",
    "region_keyword": "서울특별시 종로구 사직동"
  },
  {
    "id": "17479381",
    "name": "평안교회",
    "address": "서울 중구 순화동 6-9",
    "roadAddress": "서울 중구 서소문로 89-11",
    "phone": "",
    "lat": 37.5628202872988,
    "lng": 126.970762177437,
    "url": "http://place.map.kakao.com/17479381",
    "category": "문화,예술 > 종교 > 기독교 > 교회",
    "region_keyword": "서울특별시 종로구 당주동"
  },
  {
    "id": "17369712",
    "name": "서소문교회",
    "address": "서울 중구 서소문동 75-2",
    "roadAddress": "서울 중구 서소문로12길 13",
    "phone": "02-755-4635",
    "lat": 37.5626951086878,
    "lng": 126.974940991391,
    "url": "http://place.map.kakao.com/17369712",
    "category": "문화,예술 > 종교 > 기독교 > 교회",
    "region_keyword": "서울특별시 종로구 당주동"
  },
  {
    "id": "1958329870",
    "name": "미래교회",
    "address": "서울 중구 다동 155",
    "roadAddress": "서울 중구 남대문로9길 40",
    "phone": "",
    "lat": 37.56712182420768,
    "lng": 126.98033872004697,
    "url": "http://place.map.kakao.com/1958329870",
    "category": "문화,예술 > 종교 > 기독교 > 교회",
    "region_keyword": "서울특별시 종로구 당주동"
  },
  {
    "id": "8916012",
    "name": "동산교회",
    "address": "서울 서대문구 충정로2가 98-8",
    "roadAddress": "서울 서대문구 충정로 67-3",
    "phone": "02-393-4700",
    "lat": 37.5648658629496,
    "lng": 126.965269515575,
    "url": "http://place.map.kakao.com/8916012",
    "category": "문화,예술 > 종교 > 기독교 > 교회",
    "region_keyword": "서울특별시 종로구 당주동"
  },
  {
    "id": "1717537839",
    "name": "청량교회",
    "address": "서울 서대문구 충정로2가 26",
    "roadAddress": "서울 서대문구 통일로9안길 38",
    "phone": "",
    "lat": 37.565781387438,
    "lng": 126.965653933085,
    "url": "http://place.map.kakao.com/1717537839",
    "category": "문화,예술 > 종교 > 기독교 > 교회",
    "region_keyword": "서울특별시 종로구 당주동"
  },
  {
    "id": "21323124",
    "name": "세광교회",
    "address": "서울 서대문구 냉천동 260-1",
    "roadAddress": "서울 서대문구 독립문로14길 56",
    "phone": "02-312-6792",
    "lat": 37.5668539435794,
    "lng": 126.961044319078,
    "url": "http://place.map.kakao.com/21323124",
    "category": "문화,예술 > 종교 > 기독교 > 교회",
    "region_keyword": "서울특별시 종로구 당주동"
  },
  {
    "id": "9820647",
    "name": "서대문감리교회",
    "address": "서울 서대문구 냉천동 261-3",
    "roadAddress": "서울 서대문구 독립문로14길 30",
    "phone": "",
    "lat": 37.5667931507989,
    "lng": 126.962511299817,
    "url": "http://place.map.kakao.com/9820647",
    "category": "문화,예술 > 종교 > 기독교 > 교회",
    "region_keyword": "서울특별시 종로구 당주동"
  },
  {
    "id": "1905841150",
    "name": "주안에교회",
    "address": "서울 서대문구 냉천동 227",
    "roadAddress": "서울 서대문구 통일로 153-1",
    "phone": "02-363-1594",
    "lat": 37.5677307898086,
    "lng": 126.964462258861,
    "url": "http://place.map.kakao.com/1905841150",
    "category": "문화,예술 > 종교 > 기독교 > 교회",
    "region_keyword": "서울특별시 종로구 당주동"
  }
]