[
  {
    "id": "1160330296",
    "name": "광화문청년가정교회",
    "type": "church",
    "address": "서울 종로구 내수동 110-43",
    "roadAddress": "서울 종로구 경희궁2길 8-4",
    "phone": null,
    "lat": 37.5725115087159,
    "lng": 126.971214581872,
    "kakaoUrl": "http://place.map.kakao.com/1160330296",
    "category": "문화,예술 > 종교 > 통일교",
    "denomination": null,
    "isCult": true,
    "cultType": "통일교",
    "region": "서울특별시 종로구 내수동",
    "website": "https://policy.daum.net/info/info",
    "serviceTime": null,
    "pastor": null
  },
  {
    "id": "27300804",
    "name": "강남가정교회",
    "type": "church",
    "address": "서울 강남구 역삼동 819-1",
    "roadAddress": "서울 강남구 강남대로94길 14",
    "phone": "02-566-2201",
    "lat": 37.4993575102398,
    "lng": 127.028611428758,
    "kakaoUrl": "http://place.map.kakao.com/27300804",
    "category": "문화,예술 > 종교 > 통일교",
    "denomination": null,
    "isCult": true,
    "cultType": "통일교",
    "region": "서울특별시 서초구 역삼동",
    "website": "https://www.youtube.com/channel/UClwF7ZQ2Oj4KNC5d5PhpVcw",
    "serviceTime": null,
    "pastor": null
  },
  {
    "id": "179075632",
    "name": "중구가정교회",
    "type": "church",
    "address": "서울 중구 신당동 62-39",
    "roadAddress": "서울 중구 다산로36가길 35",
    "phone": null,
    "lat": 37.5615968006963,
    "lng": 127.020336660264,
    "kakaoUrl": "http://place.map.kakao.com/179075632",
    "category": "문화,예술 > 종교 > 통일교",
    "denomination": null,
    "isCult": true,
    "cultType": "통일교",
    "region": "서울특별시 성동구 신당동",
    "website": "https://policy.daum.net/info/info",
    "serviceTime": null,
    "pastor": null
  },
  {
    "id": "8775799",
    "name": "광진가정교회",
    "type": "church",
    "address": "서울 광진구 중곡동 163-2",
    "roadAddress": "서울 광진구 긴고랑로 52",
    "phone": "02-461-6284",
    "lat": 37.5622368835328,
    "lng": 127.081899666313,
    "kakaoUrl": "http://place.map.kakao.com/8775799",
    "category": "문화,예술 > 종교 > 통일교",
    "denomination": null,
    "isCult": true,
    "cultType": "통일교",
    "region": "서울특별시 동대문구 중곡동",
    "website": "https://policy.daum.net/info/info",
    "serviceTime": null,
    "pastor": null
  },
  {
    "id": "26812463",
    "name": "여호와의증인 자양왕국회관",
    "type": "church",
    "address": "서울 광진구 구의동 246-3",
    "roadAddress": "서울 광진구 아차산로 395",
    "phone": null,
    "lat": 37.537546342124,
    "lng": 127.086375876419,
    "kakaoUrl": "http://place.map.kakao.com/26812463",
    "category": "문화,예술 > 종교 > 종교시설",
    "denomination": null,
    "isCult": true,
    "cultType": "왕국회관",
    "region": "서울특별시 성동구 구의1동",
    "website": "https://policy.daum.net/info/info",
    "serviceTime": null,
    "pastor": null
  },
  {
    "id": "10477103",
    "name": "성북가정교회",
    "type": "church",
    "address": "서울 성북구 종암동 57-25",
    "roadAddress": "서울 성북구 종암로19길 89",
    "phone": null,
    "lat": 37.5976993528941,
    "lng": 127.030062244267,
    "kakaoUrl": "http://place.map.kakao.com/10477103",
    "category": "문화,예술 > 종교 > 통일교",
    "denomination": null,
    "isCult": true,
    "cultType": "통일교",
    "region": "서울특별시 동대문구 종암동",
    "website": "https://youtube.com/@ffwpsb?si=VsmSyaH1IT8zw33b",
    "serviceTime": null,
    "pastor": null
  },
  {
    "id": "1656541359",
    "name": "신천지예수교 증거장막성전 서울야고보지파 동대문교회",
    "type": "church",
    "address": "서울 동대문구 제기동 1015",
    "roadAddress": "서울 동대문구 왕산로 147",
    "phone": "070-4441-7003",
    "lat": 37.5787756788288,
    "lng": 127.039645671448,
    "kakaoUrl": "http://place.map.kakao.com/1656541359",
    "category": "문화,예술 > 종교",
    "denomination": null,
    "isCult": true,
    "cultType": "신천지",
    "region": "서울특별시 동대문구 제기동",
    "website": "https://shincheonji.org/",
    "serviceTime": null,
    "pastor": null
  },
  {
    "id": "166710672",
    "name": "노원가정교회",
    "type": "church",
    "address": "서울 노원구 하계동 251-10",
    "roadAddress": "서울 노원구 한글비석로 93",
    "phone": null,
    "lat": 37.6382525797334,
    "lng": 127.072205347331,
    "kakaoUrl": "http://place.map.kakao.com/166710672",
    "category": "문화,예술 > 종교 > 통일교",
    "denomination": null,
    "isCult": true,
    "cultType": "통일교",
    "region": "서울특별시 도봉구 하계동",
    "website": "https://policy.daum.net/info/info",
    "serviceTime": null,
    "pastor": null
  },
  {
    "id": "23891462",
    "name": "세계기독교통일신령협회 하계교회",
    "type": "church",
    "address": "서울 노원구 하계동 251-10",
    "roadAddress": "서울 노원구 한글비석로 93",
    "phone": null,
    "lat": 37.6382543803152,
    "lng": 127.07220761505,
    "kakaoUrl": "http://place.map.kakao.com/23891462",
    "category": "문화,예술 > 종교 > 통일교",
    "denomination": null,
    "isCult": true,
    "cultType": "통일교",
    "region": "서울특별시 도봉구 하계동",
    "website": "https://policy.daum.net/info/info",
    "serviceTime": null,
    "pastor": null
  },
  {
    "id": "933712713",
    "name": "만민중앙교회 북부지성전",
    "type": "church",
    "address": "서울 강북구 미아동 158-10",
    "roadAddress": "서울 강북구 덕릉로 108",
    "phone": null,
    "lat": 37.63463190844905,
    "lng": 127.02563828370855,
    "kakaoUrl": "http://place.map.kakao.com/933712713",
    "category": "문화,예술 > 종교 > 기독교 > 교회",
    "denomination": null,
    "isCult": true,
    "cultType": "만민중앙교회",
    "region": "서울특별시 도봉구 미아3동",
    "website": "https://policy.daum.net/info/info",
    "serviceTime": null,
    "pastor": null
  },
  {
    "id": "1688204000",
    "name": "도봉가정교회",
    "type": "church",
    "address": "서울 도봉구 창동 661-10",
    "roadAddress": "서울 도봉구 도봉로110나길 79",
    "phone": "02-900-0405",
    "lat": 37.6496305805,
    "lng": 127.036034527125,
    "kakaoUrl": "http://place.map.kakao.com/1688204000",
    "category": "문화,예술 > 종교 > 통일교",
    "denomination": null,
    "isCult": true,
    "cultType": "통일교",
    "region": "서울특별시 노원구 창1동",
    "website": "https://www.youtube.com/@하늘부모님성회도봉가",
    "serviceTime": null,
    "pastor": null
  },
  {
    "id": "1225565044",
    "name": "신천지예수교 증거장막성전 서울야고보지파 구리교회",
    "type": "church",
    "address": "서울 노원구 상계동 764-1",
    "roadAddress": "서울 노원구 동일로 1323",
    "phone": "070-4441-6956",
    "lat": 37.6468083984674,
    "lng": 127.062616118091,
    "kakaoUrl": "http://place.map.kakao.com/1225565044",
    "category": "문화,예술 > 종교 > 기독교 > 교회",
    "denomination": null,
    "isCult": true,
    "cultType": "신천지",
    "region": "서울특별시 노원구 상계7동",
    "website": null,
    "serviceTime": null,
    "pastor": null
  },
  {
    "id": "194696319",
    "name": "신천지예수교 증거장막성전 시몬지파 서대문교회",
    "type": "church",
    "address": "서울 서대문구 창천동 490",
    "roadAddress": "서울 서대문구 연희로 28",
    "phone": null,
    "lat": 37.5612265581556,
    "lng": 126.927260132999,
    "kakaoUrl": "http://place.map.kakao.com/194696319",
    "category": "문화,예술 > 종교 > 기독교 > 교회",
    "denomination": null,
    "isCult": true,
    "cultType": "신천지",
    "region": "서울특별시 마포구 연남동",
    "website": "https://shincheonji.org",
    "serviceTime": null,
    "pastor": null
  },
  {
    "id": "24874485",
    "name": "서대문가정교회",
    "type": "church",
    "address": "서울 서대문구 홍제동 308-63",
    "roadAddress": "서울 서대문구 통일로39길 48",
    "phone": "02-391-7940",
    "lat": 37.5872699200418,
    "lng": 126.942121160474,
    "kakaoUrl": "http://place.map.kakao.com/24874485",
    "category": "문화,예술 > 종교 > 통일교",
    "denomination": null,
    "isCult": true,
    "cultType": "통일교",
    "region": "서울특별시 서대문구 홍제동",
    "website": "http://cafe.daum.net/sdm-tongil-hc",
    "serviceTime": null,
    "pastor": null
  },
  {
    "id": "20542738",
    "name": "강서가정교회",
    "type": "church",
    "address": "서울 강서구 등촌동 645-7",
    "roadAddress": "서울 강서구 공항대로55길 20",
    "phone": "02-3662-0787",
    "lat": 37.5538981347953,
    "lng": 126.861198047345,
    "kakaoUrl": "http://place.map.kakao.com/20542738",
    "category": "문화,예술 > 종교 > 통일교",
    "denomination": null,
    "isCult": true,
    "cultType": "통일교",
    "region": "서울특별시 영등포구 등촌동",
    "website": "https://policy.daum.net/info/info",
    "serviceTime": null,
    "pastor": null
  },
  {
    "id": "697011253",
    "name": "신천지예수교회",
    "type": "church",
    "address": "서울 구로구 개봉동 182-11",
    "roadAddress": "서울 구로구 개봉로23가길 76",
    "phone": null,
    "lat": 37.494657933578,
    "lng": 126.86023122086,
    "kakaoUrl": "http://place.map.kakao.com/697011253",
    "category": "문화,예술 > 종교",
    "denomination": null,
    "isCult": true,
    "cultType": "신천지",
    "region": "서울특별시 영등포구 개봉동",
    "website": "https://policy.daum.net/info/info",
    "serviceTime": null,
    "pastor": null
  },
  {
    "id": "20944074",
    "name": "흑석동작가정교회",
    "type": "church",
    "address": "서울 동작구 흑석동 341-1",
    "roadAddress": "서울 동작구 흑석로13길 36",
    "phone": "02-814-0114",
    "lat": 37.510704455152556,
    "lng": 126.95823004028225,
    "kakaoUrl": "http://place.map.kakao.com/20944074",
    "category": "문화,예술 > 종교 > 통일교",
    "denomination": null,
    "isCult": true,
    "cultType": "통일교",
    "region": "서울특별시 관악구 흑석동",
    "website": "https://policy.daum.net/info/info",
    "serviceTime": null,
    "pastor": null
  },
  {
    "id": "7869471",
    "name": "만민중앙교회",
    "type": "church",
    "address": "서울 동작구 신대방동 361-66",
    "roadAddress": "서울 동작구 여의대방로22길 73",
    "phone": "02-818-7000",
    "lat": 37.49794705659851,
    "lng": 126.92381361369452,
    "kakaoUrl": "http://place.map.kakao.com/7869471",
    "category": "문화,예술 > 종교 > 기독교 > 교회",
    "denomination": null,
    "isCult": true,
    "cultType": "만민중앙교회",
    "region": "서울특별시 관악구 신대방동",
    "website": "http://www.manmin.org",
    "serviceTime": null,
    "pastor": null
  },
  {
    "id": "1835351517",
    "name": "신천지예수교 증거장막성전 바돌로매지파 영등포교회",
    "type": "church",
    "address": "서울 동작구 신대방동 565-22",
    "roadAddress": "서울 동작구 여의대방로 2",
    "phone": "070-4441-6362",
    "lat": 37.4922519554036,
    "lng": 126.909956047283,
    "kakaoUrl": "http://place.map.kakao.com/1835351517",
    "category": "문화,예술 > 종교 > 기독교 > 교회",
    "denomination": null,
    "isCult": true,
    "cultType": "신천지",
    "region": "서울특별시 관악구 신대방동",
    "website": "https://shincheonji.org/",
    "serviceTime": null,
    "pastor": null
  },
  {
    "id": "27326982",
    "name": "영등포가정교회",
    "type": "church",
    "address": "서울 영등포구 당산동 171-31",
    "roadAddress": "서울 영등포구 국회대로53길 24-4",
    "phone": "02-2638-0141",
    "lat": 37.527485932644616,
    "lng": 126.90673472995528,
    "kakaoUrl": "http://place.map.kakao.com/27326982",
    "category": "문화,예술 > 종교 > 통일교",
    "denomination": null,
    "isCult": true,
    "cultType": "통일교",
    "region": "서울특별시 영등포구 당산동",
    "website": "https://www.youtube.com/channel/UC-XftRb5jLSSJebARqGqThA",
    "serviceTime": null,
    "pastor": null
  },
  {
    "id": "628563342",
    "name": "관악가정교회",
    "type": "church",
    "address": "서울 관악구 봉천동 1665-5",
    "roadAddress": "서울 관악구 남부순환로 1855",
    "phone": "02-889-2120",
    "lat": 37.4802497087291,
    "lng": 126.956245839269,
    "kakaoUrl": "http://place.map.kakao.com/628563342",
    "category": "문화,예술 > 종교 > 통일교",
    "denomination": null,
    "isCult": true,
    "cultType": "통일교",
    "region": "서울특별시 관악구 봉천동",
    "website": "https://policy.daum.net/info/info",
    "serviceTime": null,
    "pastor": null
  },
  {
    "id": "1731777157",
    "name": "송파가정교회",
    "type": "church",
    "address": "서울 송파구 거여동 251-19",
    "roadAddress": "서울 송파구 양산로8길 11",
    "phone": "02-417-0025",
    "lat": 37.491638359387,
    "lng": 127.145247383076,
    "kakaoUrl": "http://place.map.kakao.com/1731777157",
    "category": "문화,예술 > 종교 > 통일교",
    "denomination": null,
    "isCult": true,
    "cultType": "통일교",
    "region": "서울특별시 송파구 거여동",
    "website": "https://policy.daum.net/info/info",
    "serviceTime": null,
    "pastor": null
  },
  {
    "id": "2050791098",
    "name": "만민중앙교회 강동지성전",
    "type": "church",
    "address": "서울 강동구 길동 348-5",
    "roadAddress": "서울 강동구 양재대로 1508",
    "phone": null,
    "lat": 37.5401802015264,
    "lng": 127.141279401439,
    "kakaoUrl": "http://place.map.kakao.com/2050791098",
    "category": "문화,예술 > 종교 > 기독교 > 교회",
    "denomination": null,
    "isCult": true,
    "cultType": "만민중앙교회",
    "region": "서울특별시 강동구 길동",
    "website": "https://policy.daum.net/info/info",
    "serviceTime": null,
    "pastor": null
  },
  {
    "id": "1696037212",
    "name": "신천지예수교 증거장막성전 부산야고보지파 부산교회",
    "type": "church",
    "address": "부산 사하구 하단동 1165-17",
    "roadAddress": "부산 사하구 하신번영로261번길 17",
    "phone": "070-4441-5735",
    "lat": 35.104115010183,
    "lng": 128.957234540851,
    "kakaoUrl": "http://place.map.kakao.com/1696037212",
    "category": "문화,예술 > 종교 > 기독교 > 교회",
    "denomination": null,
    "isCult": true,
    "cultType": "신천지",
    "region": "경상남도 부산시서구 하단동",
    "website": "https://www.shincheonji.org",
    "serviceTime": null,
    "pastor": null
  },
  {
    "id": "284612513",
    "name": "동아대학사교회",
    "type": "church",
    "address": "부산 사하구 하단동 503-42",
    "roadAddress": "",
    "phone": null,
    "lat": 35.1101758790193,
    "lng": 128.960945920527,
    "kakaoUrl": "http://place.map.kakao.com/284612513",
    "category": "문화,예술 > 종교 > 통일교",
    "denomination": null,
    "isCult": true,
    "cultType": "통일교",
    "region": "경상남도 부산시서구 하단동",
    "website": "https://policy.daum.net/info/info",
    "serviceTime": null,
    "pastor": null
  },
  {
    "id": "8563647",
    "name": "통일교회",
    "type": "church",
    "address": "부산 동구 범일동 1526-48",
    "roadAddress": "부산 동구 범상로43번길 6-7",
    "phone": null,
    "lat": 35.1441755527036,
    "lng": 129.04766242906,
    "kakaoUrl": "http://place.map.kakao.com/8563647",
    "category": "문화,예술 > 종교 > 기독교 > 교회",
    "denomination": null,
    "isCult": true,
    "cultType": "통일교",
    "region": "경상남도 부산시부산진 범일동",
    "website": "https://policy.daum.net/info/info",
    "serviceTime": null,
    "pastor": null
  },
  {
    "id": "25731654",
    "name": "북부산가정교회",
    "type": "church",
    "address": "부산 사상구 모라동 700-5",
    "roadAddress": "부산 사상구 사상로469번다길 1",
    "phone": null,
    "lat": 35.1859011301264,
    "lng": 128.985890366597,
    "kakaoUrl": "http://place.map.kakao.com/25731654",
    "category": "문화,예술 > 종교 > 통일교",
    "denomination": null,
    "isCult": true,
    "cultType": "통일교",
    "region": "경상남도 부산시부산진 모라동",
    "website": "https://policy.daum.net/info/info",
    "serviceTime": null,
    "pastor": null
  },
  {
    "id": "8108968",
    "name": "남부산가정교회",
    "type": "church",
    "address": "부산 수영구 남천동 48-9",
    "roadAddress": "부산 수영구 수영로475번길 7",
    "phone": "051-623-7774",
    "lat": 35.1483166905156,
    "lng": 129.110072320526,
    "kakaoUrl": "http://place.map.kakao.com/8108968",
    "category": "문화,예술 > 종교 > 통일교",
    "denomination": null,
    "isCult": true,
    "cultType": "통일교",
    "region": "경상남도 부산시부산진 남천동",
    "website": "https://www.youtube.com/@cigtv3958",
    "serviceTime": null,
    "pastor": null
  },
  {
    "id": "284619337",
    "name": "부산학사교회",
    "type": "church",
    "address": "부산 금정구 장전동 235-9",
    "roadAddress": "",
    "phone": null,
    "lat": 35.2362242685001,
    "lng": 129.085402728677,
    "kakaoUrl": "http://place.map.kakao.com/284619337",
    "category": "문화,예술 > 종교 > 통일교",
    "denomination": null,
    "isCult": true,
    "cultType": "통일교",
    "region": "경상남도 부산시동래구 장전동",
    "website": "https://policy.daum.net/info/info",
    "serviceTime": null,
    "pastor": null
  },
  {
    "id": "14978551",
    "name": "신천지예수교 증거장막성전 안드레지파 안드레교회",
    "type": "church",
    "address": "부산 수영구 광안동 120-262",
    "roadAddress": "부산 수영구 수영로610번길 25",
    "phone": "070-4441-8677",
    "lat": 35.1603729545712,
    "lng": 129.115097871097,
    "kakaoUrl": "http://place.map.kakao.com/14978551",
    "category": "문화,예술 > 종교 > 기독교 > 교회",
    "denomination": null,
    "isCult": true,
    "cultType": "신천지",
    "region": "경상남도 부산시동래구 광안동",
    "website": "https://shincheonji.org",
    "serviceTime": null,
    "pastor": null
  },
  {
    "id": "1759601998",
    "name": "동대구가정교회",
    "type": "church",
    "address": "대구 동구 신기동 550-3",
    "roadAddress": "대구 동구 반야월로28길 80",
    "phone": null,
    "lat": 35.86918704790513,
    "lng": 128.70330662056315,
    "kakaoUrl": "http://place.map.kakao.com/1759601998",
    "category": "문화,예술 > 종교 > 통일교",
    "denomination": null,
    "isCult": true,
    "cultType": "통일교",
    "region": "경상북도 대구시동구 신기동",
    "website": "https://policy.daum.net/info/info",
    "serviceTime": null,
    "pastor": null
  },
  {
    "id": "9124896",
    "name": "군위가정교회",
    "type": "church",
    "address": "대구 군위군 군위읍 동부리 612-1",
    "roadAddress": "대구 군위군 군위읍 동서2길 5",
    "phone": null,
    "lat": 36.2355902719933,
    "lng": 128.568049858129,
    "kakaoUrl": "http://place.map.kakao.com/9124896",
    "category": "문화,예술 > 종교 > 통일교",
    "denomination": null,
    "isCult": true,
    "cultType": "통일교",
    "region": "경상북도 군위군 군위읍",
    "website": "https://policy.daum.net/info/info",
    "serviceTime": null,
    "pastor": null
  },
  {
    "id": "137726977",
    "name": "제물포교회 신천지 마태지성전",
    "type": "church",
    "address": "인천 동구 송현동 72-129",
    "roadAddress": "인천 동구 송현로 1",
    "phone": null,
    "lat": 37.4770488460151,
    "lng": 126.633306674875,
    "kakaoUrl": "http://place.map.kakao.com/137726977",
    "category": "문화,예술 > 종교 > 기독교 > 교회",
    "denomination": null,
    "isCult": true,
    "cultType": "신천지",
    "region": "경기도 인천시동구 송현동",
    "website": "https://policy.daum.net/info/info",
    "serviceTime": null,
    "pastor": null
  },
  {
    "id": "285558587",
    "name": "인천학사교회",
    "type": "church",
    "address": "인천 미추홀구 용현동 173-8",
    "roadAddress": "",
    "phone": null,
    "lat": 37.4538721332096,
    "lng": 126.660090212523,
    "kakaoUrl": "http://place.map.kakao.com/285558587",
    "category": "문화,예술 > 종교 > 통일교",
    "denomination": null,
    "isCult": true,
    "cultType": "통일교",
    "region": "경기도 인천시남구 용현동",
    "website": "https://policy.daum.net/info/info",
    "serviceTime": null,
    "pastor": null
  },
  {
    "id": "1176572901",
    "name": "만민중앙교회 부평지성전",
    "type": "church",
    "address": "인천 부평구 부평동 890-3",
    "roadAddress": "인천 부평구 주부토로 112",
    "phone": null,
    "lat": 37.504894077951,
    "lng": 126.725891590327,
    "kakaoUrl": "http://place.map.kakao.com/1176572901",
    "category": "문화,예술 > 종교 > 기독교 > 교회",
    "denomination": null,
    "isCult": true,
    "cultType": "만민중앙교회",
    "region": "경기도 인천시 부평동",
    "website": "https://policy.daum.net/info/info",
    "serviceTime": null,
    "pastor": null
  },
  {
    "id": "285501020",
    "name": "서구가정교회",
    "type": "church",
    "address": "인천 서구 심곡동 257-7",
    "roadAddress": "",
    "phone": null,
    "lat": 37.5417866436324,
    "lng": 126.673541321572,
    "kakaoUrl": "http://place.map.kakao.com/285501020",
    "category": "문화,예술 > 종교 > 통일교",
    "denomination": null,
    "isCult": true,
    "cultType": "통일교",
    "region": "인천광역시 서구",
    "website": "https://policy.daum.net/info/info",
    "serviceTime": null,
    "pastor": null
  },
  {
    "id": "1376057628",
    "name": "만민중앙교회 검단성전",
    "type": "church",
    "address": "인천 서구 마전동 979-18",
    "roadAddress": "인천 서구 완정로 162",
    "phone": null,
    "lat": 37.6020308902015,
    "lng": 126.658389008391,
    "kakaoUrl": "http://place.map.kakao.com/1376057628",
    "category": "문화,예술 > 종교 > 기독교 > 교회",
    "denomination": null,
    "isCult": true,
    "cultType": "만민중앙교회",
    "region": "인천광역시 서구 왕길동",
    "website": "https://policy.daum.net/info/info",
    "serviceTime": null,
    "pastor": null
  },
  {
    "id": "24059337",
    "name": "강화가정교회",
    "type": "church",
    "address": "인천 강화군 강화읍 신문리 353",
    "roadAddress": "인천 강화군 강화읍 신문길 24",
    "phone": null,
    "lat": 37.744616105377105,
    "lng": 126.48495787197957,
    "kakaoUrl": "http://place.map.kakao.com/24059337",
    "category": "문화,예술 > 종교 > 통일교",
    "denomination": null,
    "isCult": true,
    "cultType": "통일교",
    "region": "경기도 강화군 송해면",
    "website": "https://policy.daum.net/info/info",
    "serviceTime": null,
    "pastor": null
  },
  {
    "id": "919102545",
    "name": "신천지예수교 증거장막성전 베드로지파 송하교회",
    "type": "church",
    "address": "광주 남구 송하동 46-2",
    "roadAddress": "광주 남구 서문대로 558",
    "phone": "070-4441-5706",
    "lat": 35.1104452803244,
    "lng": 126.893983851313,
    "kakaoUrl": "http://place.map.kakao.com/919102545",
    "category": "문화,예술 > 종교 > 기독교 > 교회",
    "denomination": null,
    "isCult": true,
    "cultType": "신천지",
    "region": "전라남도 광주시서구 송하동",
    "website": "https://shincheonji.org",
    "serviceTime": null,
    "pastor": null
  },
  {
    "id": "8130352",
    "name": "남광주가정교회",
    "type": "church",
    "address": "광주 남구 사동 21-1",
    "roadAddress": "광주 남구 천변좌로382번길 5",
    "phone": "062-652-3968",
    "lat": 35.1444290580045,
    "lng": 126.912763972771,
    "kakaoUrl": "http://place.map.kakao.com/8130352",
    "category": "문화,예술 > 종교 > 통일교",
    "denomination": null,
    "isCult": true,
    "cultType": "통일교",
    "region": "전라남도 광주시서구 사동",
    "website": "https://policy.daum.net/info/info",
    "serviceTime": null,
    "pastor": null
  },
  {
    "id": "26812293",
    "name": "여호와의증인 광주지산왕국회관",
    "type": "church",
    "address": "광주 북구 두암동 973-5",
    "roadAddress": "광주 북구 무진성길64번길 13",
    "phone": null,
    "lat": 35.16257375060976,
    "lng": 126.93996965266537,
    "kakaoUrl": "http://place.map.kakao.com/26812293",
    "category": "문화,예술 > 종교 > 종교시설",
    "denomination": null,
    "isCult": true,
    "cultType": "왕국회관",
    "region": "전라남도 광주시북구 화암동",
    "website": "https://policy.daum.net/info/info",
    "serviceTime": null,
    "pastor": null
  },
  {
    "id": "1379873994",
    "name": "신천지예수교 증거장막성전 맛디아지파 대전교회",
    "type": "church",
    "address": "대전 서구 용문동 244-51",
    "roadAddress": "대전 서구 계룡로 657-1",
    "phone": null,
    "lat": 36.3377534445526,
    "lng": 127.395197626905,
    "kakaoUrl": "http://place.map.kakao.com/1379873994",
    "category": "문화,예술 > 종교 > 기독교 > 교회",
    "denomination": null,
    "isCult": true,
    "cultType": "신천지",
    "region": "충청남도 대전시서구 용문동",
    "website": "https://policy.daum.net/info/info",
    "serviceTime": null,
    "pastor": null
  },
  {
    "id": "9248782",
    "name": "여호와의증인의 왕국회관",
    "type": "church",
    "address": "대전 동구 용운동 320-5",
    "roadAddress": "대전 동구 동부로85번길 13",
    "phone": null,
    "lat": 36.3229180209276,
    "lng": 127.461642797618,
    "kakaoUrl": "http://place.map.kakao.com/9248782",
    "category": "문화,예술 > 종교 > 기독교 > 교회",
    "denomination": null,
    "isCult": true,
    "cultType": "왕국회관",
    "region": "충청남도 대전시동구 용운동",
    "website": "https://policy.daum.net/info/info",
    "serviceTime": null,
    "pastor": null
  },
  {
    "id": "9459323",
    "name": "대전중앙가정교회",
    "type": "church",
    "address": "대전 중구 부사동 92-13",
    "roadAddress": "대전 중구 대종로372번길 22",
    "phone": "042-221-9991",
    "lat": 36.3187681311038,
    "lng": 127.432976982105,
    "kakaoUrl": "http://place.map.kakao.com/9459323",
    "category": "문화,예술 > 종교 > 통일교",
    "denomination": null,
    "isCult": true,
    "cultType": "통일교",
    "region": "충청남도 대전시중구 부사동",
    "website": "https://www.ffwp.org",
    "serviceTime": null,
    "pastor": null
  },
  {
    "id": "1608747055",
    "name": "신천지예수교 증거장막성전 안드레지파 울산교회",
    "type": "church",
    "address": "울산 남구 무거동 947-2",
    "roadAddress": "울산 남구 대학로1번길 49",
    "phone": "070-4441-5900",
    "lat": 35.5399759866827,
    "lng": 129.252095869802,
    "kakaoUrl": "http://place.map.kakao.com/1608747055",
    "category": "문화,예술 > 종교 > 기독교 > 교회",
    "denomination": null,
    "isCult": true,
    "cultType": "신천지",
    "region": "경상남도 울산시남구 무거동",
    "website": "https://shincheonji.org",
    "serviceTime": null,
    "pastor": null
  },
  {
    "id": "11225565",
    "name": "동울산가정교회",
    "type": "church",
    "address": "울산 동구 전하동 652-8",
    "roadAddress": "울산 동구 진성8길 97",
    "phone": "052-251-2290",
    "lat": 35.5096856112443,
    "lng": 129.429386945503,
    "kakaoUrl": "http://place.map.kakao.com/11225565",
    "category": "문화,예술 > 종교 > 통일교",
    "denomination": null,
    "isCult": true,
    "cultType": "통일교",
    "region": "경상남도 울산시동구 남목2동",
    "website": "https://www.ffwp.org/",
    "serviceTime": null,
    "pastor": null
  },
  {
    "id": "1662634776",
    "name": "신천지예수교 증거장막성전 맛디아지파 세종교회",
    "type": "church",
    "address": "세종특별자치시 아름동 1310",
    "roadAddress": "세종특별자치시 세종로 1234-12",
    "phone": "070-4441-5462",
    "lat": 36.5125904360421,
    "lng": 127.242652460047,
    "kakaoUrl": "http://place.map.kakao.com/1662634776",
    "category": "문화,예술 > 종교",
    "denomination": null,
    "isCult": true,
    "cultType": "신천지",
    "region": "세종특별자치시 세종시 아름동",
    "website": "https://shincheonji.org",
    "serviceTime": null,
    "pastor": null
  },
  {
    "id": "2064676527",
    "name": "만민중앙교회 인천지성전",
    "type": "church",
    "address": "인천 남동구 구월동 1131-13",
    "roadAddress": "인천 남동구 구월남로 120",
    "phone": null,
    "lat": 37.4530609467533,
    "lng": 126.702771911541,
    "kakaoUrl": "http://place.map.kakao.com/2064676527",
    "category": "문화,예술 > 종교 > 기독교 > 교회",
    "denomination": null,
    "isCult": true,
    "cultType": "만민중앙교회",
    "region": "경기도 인천시남구 구월동",
    "website": "https://policy.daum.net/info/info",
    "serviceTime": null,
    "pastor": null
  },
  {
    "id": "1380661400",
    "name": "만민중앙교회 수원지성전",
    "type": "church",
    "address": "경기 수원시 팔달구 우만동 553-12",
    "roadAddress": "경기 수원시 팔달구 팔달문로150번길 26",
    "phone": "031-202-8480",
    "lat": 37.2816368965154,
    "lng": 127.03271002223,
    "kakaoUrl": "http://place.map.kakao.com/1380661400",
    "category": "문화,예술 > 종교 > 기독교 > 교회",
    "denomination": null,
    "isCult": true,
    "cultType": "만민중앙교회",
    "region": "경기도 수원시팔달구 우만동",
    "website": "http://www.manmin.or.kr",
    "serviceTime": null,
    "pastor": null
  },
  {
    "id": "1693847110",
    "name": "수원학사교회",
    "type": "church",
    "address": "경기 수원시 영통구 원천동 78-34",
    "roadAddress": "경기 수원시 영통구 동수원로537번길 22-14",
    "phone": null,
    "lat": 37.2748629931073,
    "lng": 127.048194700803,
    "kakaoUrl": "http://place.map.kakao.com/1693847110",
    "category": "문화,예술 > 종교 > 통일교",
    "denomination": null,
    "isCult": true,
    "cultType": "통일교",
    "region": "경기도 수원시팔달구 원천동",
    "website": "https://policy.daum.net/info/info",
    "serviceTime": null,
    "pastor": null
  },
  {
    "id": "7957831",
    "name": "수원가정교회",
    "type": "church",
    "address": "경기 수원시 팔달구 매산로3가 20-7",
    "roadAddress": "경기 수원시 팔달구 효원로 17",
    "phone": "031-246-4512",
    "lat": 37.27192510828004,
    "lng": 127.00961962431462,
    "kakaoUrl": "http://place.map.kakao.com/7957831",
    "category": "문화,예술 > 종교 > 통일교",
    "denomination": null,
    "isCult": true,
    "cultType": "통일교",
    "region": "경기도 수원시권선구 매산동",
    "website": "https://www.youtube.com/@경기남부교구본부",
    "serviceTime": null,
    "pastor": null
  },
  {
    "id": "7940154",
    "name": "성남가정교회",
    "type": "church",
    "address": "경기 성남시 수정구 수진동 4590",
    "roadAddress": "경기 성남시 수정구 성남대로 1199-5",
    "phone": null,
    "lat": 37.4366501227986,
    "lng": 127.127683452804,
    "kakaoUrl": "http://place.map.kakao.com/7940154",
    "category": "문화,예술 > 종교 > 통일교",
    "denomination": null,
    "isCult": true,
    "cultType": "통일교",
    "region": "경기도 성남시수정구 수진동",
    "website": "https://blog.naver.com/happy250413",
    "serviceTime": null,
    "pastor": null
  },
  {
    "id": "2051529988",
    "name": "만민중앙교회 분당지성전",
    "type": "church",
    "address": "경기 성남시 분당구 야탑동 367-4",
    "roadAddress": "경기 성남시 분당구 야탑로 95",
    "phone": null,
    "lat": 37.4101692847787,
    "lng": 127.129287628928,
    "kakaoUrl": "http://place.map.kakao.com/2051529988",
    "category": "문화,예술 > 종교 > 기독교 > 교회",
    "denomination": null,
    "isCult": true,
    "cultType": "만민중앙교회",
    "region": "경기도 성남시분당구 삼평동",
    "website": "https://policy.daum.net/info/info",
    "serviceTime": null,
    "pastor": null
  },
  {
    "id": "9553708",
    "name": "중원가정교회",
    "type": "church",
    "address": "경기 성남시 중원구 중앙동 305",
    "roadAddress": "경기 성남시 중원구 광명로 247",
    "phone": "031-748-7434",
    "lat": 37.4424752416818,
    "lng": 127.154090827546,
    "kakaoUrl": "http://place.map.kakao.com/9553708",
    "category": "문화,예술 > 종교 > 통일교",
    "denomination": null,
    "isCult": true,
    "cultType": "통일교",
    "region": "경기도 성남시중원구 중앙동",
    "website": "https://www.youtube.com/channel/UCVolJ7NTLpamBvhJ2k4QPwg",
    "serviceTime": null,
    "pastor": null
  },
  {
    "id": "2051376940",
    "name": "만민중앙교회 의정부지성전",
    "type": "church",
    "address": "경기 의정부시 의정부동 165-1",
    "roadAddress": "경기 의정부시 평화로 483",
    "phone": "031-840-2906",
    "lat": 37.7350750832522,
    "lng": 127.047647412208,
    "kakaoUrl": "http://place.map.kakao.com/2051376940",
    "category": "문화,예술 > 종교 > 기독교 > 교회",
    "denomination": null,
    "isCult": true,
    "cultType": "만민중앙교회",
    "region": "경기도 의정부시 의정부4동",
    "website": "https://policy.daum.net/info/info",
    "serviceTime": null,
    "pastor": null
  },
  {
    "id": "1521576415",
    "name": "신천지예수교 증거장막성전 서울야고보지파 의정부교회",
    "type": "church",
    "address": "경기 의정부시 호원동 455-8",
    "roadAddress": "경기 의정부시 평화로 224",
    "phone": null,
    "lat": 37.7118695629913,
    "lng": 127.047868444045,
    "kakaoUrl": "http://place.map.kakao.com/1521576415",
    "category": "문화,예술 > 종교 > 기독교 > 교회",
    "denomination": null,
    "isCult": true,
    "cultType": "신천지",
    "region": "경기도 의정부시 호원동",
    "website": "https://shincheonji.org",
    "serviceTime": null,
    "pastor": null
  },
  {
    "id": "1041213705",
    "name": "광명가정교회",
    "type": "church",
    "address": "경기 광명시 하안동 27-2",
    "roadAddress": "경기 광명시 범안로 1077",
    "phone": "02-892-4051",
    "lat": 37.464024649768,
    "lng": 126.881790977319,
    "kakaoUrl": "http://place.map.kakao.com/1041213705",
    "category": "문화,예술 > 종교 > 통일교",
    "denomination": null,
    "isCult": true,
    "cultType": "통일교",
    "region": "경기도 광명시 하안동",
    "website": "https://policy.daum.net/info/info",
    "serviceTime": null,
    "pastor": null
  },
  {
    "id": "546213375",
    "name": "하나님의 교회 교육관",
    "type": "church",
    "address": "경기 광명시 소하동 1341-2",
    "roadAddress": "경기 광명시 소하로 86",
    "phone": null,
    "lat": 37.447373805461,
    "lng": 126.883469391446,
    "kakaoUrl": "http://place.map.kakao.com/546213375",
    "category": "문화,예술 > 종교 > 기독교 > 교회",
    "denomination": null,
    "isCult": true,
    "cultType": "하나님의 교회",
    "region": "경기도 광명시 소하1동",
    "website": "https://policy.daum.net/info/info",
    "serviceTime": null,
    "pastor": null
  },
  {
    "id": "27651551",
    "name": "여호와의증인왕국회관",
    "type": "church",
    "address": "경기 평택시 칠괴동 494",
    "roadAddress": "경기 평택시 칠괴길 106",
    "phone": null,
    "lat": 37.0254501119714,
    "lng": 127.080694967813,
    "kakaoUrl": "http://place.map.kakao.com/27651551",
    "category": "문화,예술 > 종교 > 기독교 > 교회",
    "denomination": null,
    "isCult": true,
    "cultType": "왕국회관",
    "region": "경기도 평택시 청룡동",
    "website": "https://www.jw.org",
    "serviceTime": null,
    "pastor": null
  },
  {
    "id": "8964298",
    "name": "만민중앙교회 안산성전",
    "type": "church",
    "address": "경기 안산시 상록구 월피동 508-1",
    "roadAddress": "경기 안산시 상록구 광덕산2로 22",
    "phone": "031-485-9143",
    "lat": 37.3353212749687,
    "lng": 126.845297806775,
    "kakaoUrl": "http://place.map.kakao.com/8964298",
    "category": "문화,예술 > 종교 > 기독교 > 교회",
    "denomination": null,
    "isCult": true,
    "cultType": "만민중앙교회",
    "region": "경기도 안산시상록구 월피동",
    "website": "http://www.manmin.org/",
    "serviceTime": null,
    "pastor": null
  },
  {
    "id": "9231867",
    "name": "안산가정교회",
    "type": "church",
    "address": "경기 안산시 단원구 고잔동 637-3",
    "roadAddress": "경기 안산시 단원구 예술길 19",
    "phone": "031-403-2500",
    "lat": 37.330910990754,
    "lng": 126.838085374412,
    "kakaoUrl": "http://place.map.kakao.com/9231867",
    "category": "문화,예술 > 종교 > 통일교",
    "denomination": null,
    "isCult": true,
    "cultType": "통일교",
    "region": "경기도 안산시 중앙동",
    "website": "https://youtube.com/channel/UCqZq-MhU5-oQ5ymMw_1ZR8Q?feature=shared",
    "serviceTime": null,
    "pastor": null
  },
  {
    "id": "187155889",
    "name": "신천지예수교회",
    "type": "church",
    "address": "경기 안산시 단원구 고잔동 542-2",
    "roadAddress": "경기 안산시 단원구 안산천서로 9",
    "phone": null,
    "lat": 37.3173543572059,
    "lng": 126.842306674279,
    "kakaoUrl": "http://place.map.kakao.com/187155889",
    "category": "문화,예술 > 종교",
    "denomination": null,
    "isCult": true,
    "cultType": "신천지",
    "region": "경기도 안산시 중앙동",
    "website": "https://policy.daum.net/info/info",
    "serviceTime": null,
    "pastor": null
  },
  {
    "id": "2064748649",
    "name": "만민중앙교회 일산지성전",
    "type": "church",
    "address": "경기 고양시 일산동구 백석동 1452-3",
    "roadAddress": "경기 고양시 일산동구 강촌로 18",
    "phone": null,
    "lat": 37.6459325681099,
    "lng": 126.778625404179,
    "kakaoUrl": "http://place.map.kakao.com/2064748649",
    "category": "문화,예술 > 종교 > 기독교 > 교회",
    "denomination": null,
    "isCult": true,
    "cultType": "만민중앙교회",
    "region": "경기도 고양시일산동구 백석동",
    "website": "https://policy.daum.net/info/info",
    "serviceTime": null,
    "pastor": null
  },
  {
    "id": "952560125",
    "name": "일산가정교회",
    "type": "church",
    "address": "경기 고양시 일산동구 식사동 1518",
    "roadAddress": "경기 고양시 일산동구 위시티로 55-13",
    "phone": "031-975-2304",
    "lat": 37.678288883580755,
    "lng": 126.81035951495907,
    "kakaoUrl": "http://place.map.kakao.com/952560125",
    "category": "문화,예술 > 종교 > 통일교",
    "denomination": null,
    "isCult": true,
    "cultType": "통일교",
    "region": "경기도 고양시일산동구 문봉동",
    "website": "https://policy.daum.net/info/info",
    "serviceTime": null,
    "pastor": null
  },
  {
    "id": "12366097",
    "name": "과천가정교회",
    "type": "church",
    "address": "경기 과천시 별양동 14",
    "roadAddress": "경기 과천시 별양로 66-10",
    "phone": "02-507-2497",
    "lat": 37.42427770574616,
    "lng": 126.99423824259021,
    "kakaoUrl": "http://place.map.kakao.com/12366097",
    "category": "문화,예술 > 종교 > 통일교",
    "denomination": null,
    "isCult": true,
    "cultType": "통일교",
    "region": "경기도 과천시 부림동",
    "website": "https://www.youtube.com/@한명원장로열린예배/featured",
    "serviceTime": null,
    "pastor": null
  },
  {
    "id": "1608076298",
    "name": "신천지예수교증거장막성전 요한지파 과천교회",
    "type": "church",
    "address": "경기 과천시 별양동 1-19",
    "roadAddress": "경기 과천시 별양상가3로 11",
    "phone": "02-502-6424",
    "lat": 37.42628682203461,
    "lng": 126.99167347318111,
    "kakaoUrl": "http://place.map.kakao.com/1608076298",
    "category": "문화,예술 > 종교 > 종교단체",
    "denomination": null,
    "isCult": true,
    "cultType": "신천지",
    "region": "경기도 과천시 부림동",
    "website": "https://www.shincheonji.org",
    "serviceTime": null,
    "pastor": null
  },
  {
    "id": "25828753",
    "name": "만민중앙교회 구리지성전",
    "type": "church",
    "address": "경기 구리시 교문동 735-1",
    "roadAddress": "경기 구리시 안골로 46",
    "phone": null,
    "lat": 37.5971092648733,
    "lng": 127.136169037719,
    "kakaoUrl": "http://place.map.kakao.com/25828753",
    "category": "문화,예술 > 종교 > 기독교 > 교회",
    "denomination": null,
    "isCult": true,
    "cultType": "만민중앙교회",
    "region": "경기도 구리시 교문동",
    "website": "https://policy.daum.net/info/info",
    "serviceTime": null,
    "pastor": null
  },
  {
    "id": "1232255997",
    "name": "세계평화통일가정연합 오산가정교회",
    "type": "church",
    "address": "경기 오산시 원동 760-1",
    "roadAddress": "경기 오산시 대원로15번길 12",
    "phone": "031-374-2402",
    "lat": 37.1474029436276,
    "lng": 127.070235602836,
    "kakaoUrl": "http://place.map.kakao.com/1232255997",
    "category": "문화,예술 > 종교 > 통일교",
    "denomination": null,
    "isCult": true,
    "cultType": "통일교",
    "region": "경기도 오산시 원동",
    "website": "https://policy.daum.net/info/info",
    "serviceTime": null,
    "pastor": null
  },
  {
    "id": "1463774633",
    "name": "신천지예수교증거장막성전 바돌로매지파 부천교회",
    "type": "church",
    "address": "경기 시흥시 미산동 444-27",
    "roadAddress": "경기 시흥시 미산로143번길 32",
    "phone": null,
    "lat": 37.4161442279943,
    "lng": 126.795061883431,
    "kakaoUrl": "http://place.map.kakao.com/1463774633",
    "category": "문화,예술 > 종교 > 기독교 > 교회",
    "denomination": null,
    "isCult": true,
    "cultType": "신천지",
    "region": "경기도 시흥시 하중동",
    "website": "https://policy.daum.net/info/info",
    "serviceTime": null,
    "pastor": null
  },
  {
    "id": "1513740247",
    "name": "신천지예수교 증거장막성전 요한지파 강동교회",
    "type": "church",
    "address": "경기 하남시 감일동 176",
    "roadAddress": "경기 하남시 서하남로48번길 46",
    "phone": "070-4441-5225",
    "lat": 37.5140921371759,
    "lng": 127.150419329911,
    "kakaoUrl": "http://place.map.kakao.com/1513740247",
    "category": "문화,예술 > 종교 > 기독교 > 교회",
    "denomination": null,
    "isCult": true,
    "cultType": "신천지",
    "region": "경기도 하남시 광암동",
    "website": "https://policy.daum.net/info/info",
    "serviceTime": null,
    "pastor": null
  },
  {
    "id": "25825695",
    "name": "하남가정교회",
    "type": "church",
    "address": "경기 하남시 덕풍동 446-11",
    "roadAddress": "경기 하남시 역말로36번길 11",
    "phone": "031-792-3185",
    "lat": 37.5353620555273,
    "lng": 127.201792693322,
    "kakaoUrl": "http://place.map.kakao.com/25825695",
    "category": "문화,예술 > 종교 > 통일교",
    "denomination": null,
    "isCult": true,
    "cultType": "통일교",
    "region": "경기도 하남시 하사창동",
    "website": "https://policy.daum.net/info/info",
    "serviceTime": null,
    "pastor": null
  },
  {
    "id": "10352120",
    "name": "만민중앙교회 이천지성전",
    "type": "church",
    "address": "경기 이천시 중리동 460-8",
    "roadAddress": "경기 이천시 이섭대천로1177번길 12",
    "phone": "031-635-9103",
    "lat": 37.27575441355151,
    "lng": 127.44650974523022,
    "kakaoUrl": "http://place.map.kakao.com/10352120",
    "category": "문화,예술 > 종교 > 기독교 > 교회",
    "denomination": null,
    "isCult": true,
    "cultType": "만민중앙교회",
    "region": "경기도 이천시 장록동",
    "website": "https://policy.daum.net/info/info",
    "serviceTime": null,
    "pastor": null
  },
  {
    "id": "24047325",
    "name": "안성가정교회",
    "type": "church",
    "address": "경기 안성시 금산동 21-2",
    "roadAddress": "경기 안성시 백성1길 46-11",
    "phone": "031-675-3770",
    "lat": 37.0092491663634,
    "lng": 127.267255487683,
    "kakaoUrl": "http://place.map.kakao.com/24047325",
    "category": "문화,예술 > 종교 > 통일교",
    "denomination": null,
    "isCult": true,
    "cultType": "통일교",
    "region": "경기도 안성시 성남동",
    "website": "https://policy.daum.net/info/info",
    "serviceTime": null,
    "pastor": null
  },
  {
    "id": "26438217",
    "name": "광주가정교회",
    "type": "church",
    "address": "경기 광주시 경안동 72-22",
    "roadAddress": "경기 광주시 경안안길 55",
    "phone": "031-762-2563",
    "lat": 37.41139002495006,
    "lng": 127.256003883401,
    "kakaoUrl": "http://place.map.kakao.com/26438217",
    "category": "문화,예술 > 종교 > 통일교",
    "denomination": null,
    "isCult": true,
    "cultType": "통일교",
    "region": "경기도 광주군",
    "website": "https://www.youtube.com/@경기광주교회_통일교",
    "serviceTime": null,
    "pastor": null
  },
  {
    "id": "24012659",
    "name": "철원가정교회",
    "type": "church",
    "address": "강원특별자치도 철원군 동송읍 이평리 855-5",
    "roadAddress": "강원특별자치도 철원군 동송읍 이평로 80-1",
    "phone": "033-455-2774",
    "lat": 38.209031246632804,
    "lng": 127.21500842667737,
    "kakaoUrl": "http://place.map.kakao.com/24012659",
    "category": "문화,예술 > 종교 > 통일교",
    "denomination": null,
    "isCult": true,
    "cultType": "통일교",
    "region": "경기도 연천군 신서면",
    "website": "https://policy.daum.net/info/info",
    "serviceTime": null,
    "pastor": null
  },
  {
    "id": "914843306",
    "name": "신천지예수교 증거장막성전 빌립지파 청평교회",
    "type": "church",
    "address": "경기 가평군 청평면 청평리 301-4",
    "roadAddress": "경기 가평군 청평면 경춘로 871",
    "phone": "070-4441-6123",
    "lat": 37.7414369075426,
    "lng": 127.4227948258,
    "kakaoUrl": "http://place.map.kakao.com/914843306",
    "category": "문화,예술 > 종교 > 기독교 > 교회",
    "denomination": null,
    "isCult": true,
    "cultType": "신천지",
    "region": "경기도 가평군 상면",
    "website": "https://shincheonji.org",
    "serviceTime": null,
    "pastor": null
  },
  {
    "id": "23801981",
    "name": "청평가정교회",
    "type": "church",
    "address": "경기 가평군 청평면 청평리 470-14",
    "roadAddress": "경기 가평군 청평면 경춘로 800",
    "phone": "031-584-0414",
    "lat": 37.7370132050597,
    "lng": 127.417224308696,
    "kakaoUrl": "http://place.map.kakao.com/23801981",
    "category": "문화,예술 > 종교 > 통일교",
    "denomination": null,
    "isCult": true,
    "cultType": "통일교",
    "region": "경기도 가평군 설악면",
    "website": "https://cpfc.imweb.me",
    "serviceTime": null,
    "pastor": null
  },
  {
    "id": "285759752",
    "name": "조종면가정교회",
    "type": "church",
    "address": "경기 가평군 조종면 현리 410-52",
    "roadAddress": "",
    "phone": null,
    "lat": 37.8176704611223,
    "lng": 127.349721008329,
    "kakaoUrl": "http://place.map.kakao.com/285759752",
    "category": "문화,예술 > 종교 > 통일교",
    "denomination": null,
    "isCult": true,
    "cultType": "통일교",
    "region": "경기도 가평군 하면",
    "website": "https://policy.daum.net/info/info",
    "serviceTime": null,
    "pastor": null
  },
  {
    "id": "285794567",
    "name": "북면가정교회",
    "type": "church",
    "address": "경기 가평군 북면 목동리 699-17",
    "roadAddress": "",
    "phone": null,
    "lat": 37.8945296021217,
    "lng": 127.55788613684,
    "kakaoUrl": "http://place.map.kakao.com/285794567",
    "category": "문화,예술 > 종교 > 통일교",
    "denomination": null,
    "isCult": true,
    "cultType": "통일교",
    "region": "경기도 가평군 북면",
    "website": "https://policy.daum.net/info/info",
    "serviceTime": null,
    "pastor": null
  },
  {
    "id": "9732797",
    "name": "김포가정교회",
    "type": "church",
    "address": "경기 김포시 북변동 427-1",
    "roadAddress": "경기 김포시 북변중로25번길 50",
    "phone": null,
    "lat": 37.6241668640431,
    "lng": 126.709756279207,
    "kakaoUrl": "http://place.map.kakao.com/9732797",
    "category": "문화,예술 > 종교 > 통일교",
    "denomination": null,
    "isCult": true,
    "cultType": "통일교",
    "region": "경기도 김포군",
    "website": "https://policy.daum.net/info/info",
    "serviceTime": null,
    "pastor": null
  },
  {
    "id": "24045621",
    "name": "세계기독교통일교회",
    "type": "church",
    "address": "강원특별자치도 춘천시 동산면 조양리 368-7",
    "roadAddress": "강원특별자치도 춘천시 동산면 조양길 260",
    "phone": null,
    "lat": 37.7509600265596,
    "lng": 127.796565286998,
    "kakaoUrl": "http://place.map.kakao.com/24045621",
    "category": "문화,예술 > 종교 > 기독교 > 교회",
    "denomination": null,
    "isCult": true,
    "cultType": "통일교",
    "region": "강원특별자치도 춘천시 동산면",
    "website": "https://policy.daum.net/info/info",
    "serviceTime": null,
    "pastor": null
  },
  {
    "id": "679935650",
    "name": "신천지예수교 증거장막성전 빌립지파 춘천교회",
    "type": "church",
    "address": "강원특별자치도 춘천시 동내면 학곡리 62-6",
    "roadAddress": "강원특별자치도 춘천시 동내면 원창고개길 216",
    "phone": "070-4441-6191",
    "lat": 37.82778371690631,
    "lng": 127.76453701761461,
    "kakaoUrl": "http://place.map.kakao.com/679935650",
    "category": "문화,예술 > 종교",
    "denomination": null,
    "isCult": true,
    "cultType": "신천지",
    "region": "강원특별자치도 춘천시 동산면",
    "website": "https://shincheonji.org/",
    "serviceTime": null,
    "pastor": null
  },
  {
    "id": "23793547",
    "name": "화천가정교회",
    "type": "church",
    "address": "강원특별자치도 화천군 화천읍 하리 27-13",
    "roadAddress": "강원특별자치도 화천군 화천읍 상승로 22",
    "phone": "033-442-2355",
    "lat": 38.102841974948255,
    "lng": 127.7034097077687,
    "kakaoUrl": "http://place.map.kakao.com/23793547",
    "category": "문화,예술 > 종교 > 통일교",
    "denomination": null,
    "isCult": true,
    "cultType": "통일교",
    "region": "강원특별자치도 화천군 상서면",
    "website": "https://www.ffwp.org",
    "serviceTime": null,
    "pastor": null
  },
  {
    "id": "25918102",
    "name": "세계평화통일가정연합 원주가정교회",
    "type": "church",
    "address": "강원특별자치도 원주시 원동 91-2",
    "roadAddress": "강원특별자치도 원주시 일산로82번길 27-4",
    "phone": "033-764-6980",
    "lat": 37.34480865197967,
    "lng": 127.95371908681324,
    "kakaoUrl": "http://place.map.kakao.com/25918102",
    "category": "문화,예술 > 종교 > 통일교",
    "denomination": null,
    "isCult": true,
    "cultType": "통일교",
    "region": "강원도 원주시 원동",
    "website": "https://www.ffwp.org/",
    "serviceTime": null,
    "pastor": null
  },
  {
    "id": "10282680",
    "name": "동해가정교회",
    "type": "church",
    "address": "강원특별자치도 동해시 발한동 508-6",
    "roadAddress": "강원특별자치도 동해시 동호4길 8-3",
    "phone": "033-533-2368",
    "lat": 37.5459703714964,
    "lng": 129.102114264785,
    "kakaoUrl": "http://place.map.kakao.com/10282680",
    "category": "문화,예술 > 종교 > 통일교",
    "denomination": null,
    "isCult": true,
    "cultType": "통일교",
    "region": "강원특별자치도 동해시 신흥동",
    "website": "https://www.ffwp.org",
    "serviceTime": null,
    "pastor": null
  },
  {
    "id": "1843279669",
    "name": "신천지예수교 증거장막성전 빌립지파 동해교회",
    "type": "church",
    "address": "강원특별자치도 동해시 평릉동 159-1",
    "roadAddress": "강원특별자치도 동해시 동해대로 5458",
    "phone": "070-4441-6210",
    "lat": 37.5294419125833,
    "lng": 129.1052369753378,
    "kakaoUrl": "http://place.map.kakao.com/1843279669",
    "category": "문화,예술 > 종교",
    "denomination": null,
    "isCult": true,
    "cultType": "신천지",
    "region": "강원특별자치도 동해시 신흥동",
    "website": "https://shincheonji.org/",
    "serviceTime": null,
    "pastor": null
  },
  {
    "id": "9136079",
    "name": "삼척가정교회",
    "type": "church",
    "address": "강원특별자치도 삼척시 교동 653-12",
    "roadAddress": "강원특별자치도 삼척시 대학로안길 13",
    "phone": "033-573-7785",
    "lat": 37.4472241344753,
    "lng": 129.163525057683,
    "kakaoUrl": "http://place.map.kakao.com/9136079",
    "category": "문화,예술 > 종교 > 통일교",
    "denomination": null,
    "isCult": true,
    "cultType": "통일교",
    "region": "강원도 삼척시 교동",
    "website": "https://cafe.daum.net/sctongil",
    "serviceTime": null,
    "pastor": null
  },
  {
    "id": "27474281",
    "name": "태백가정교회",
    "type": "church",
    "address": "강원특별자치도 태백시 황지동 263-49",
    "roadAddress": "강원특별자치도 태백시 먹거리길 58-9",
    "phone": "033-552-3476",
    "lat": 37.1750523011726,
    "lng": 128.98745998087,
    "kakaoUrl": "http://place.map.kakao.com/27474281",
    "category": "문화,예술 > 종교 > 통일교",
    "denomination": null,
    "isCult": true,
    "cultType": "통일교",
    "region": "강원특별자치도 삼척시 도계읍",
    "website": "http://cafe.daum.net/taebaekfamilly",
    "serviceTime": null,
    "pastor": null
  },
  {
    "id": "921227874",
    "name": "평창가정교회",
    "type": "church",
    "address": "강원특별자치도 평창군 평창읍 하리 104-2",
    "roadAddress": "강원특별자치도 홍천군 홍천읍 희망진리길 13-9",
    "phone": "033-332-2374",
    "lat": 37.370014860063,
    "lng": 128.39441018249497,
    "kakaoUrl": "http://place.map.kakao.com/921227874",
    "category": "문화,예술 > 종교 > 통일교",
    "denomination": null,
    "isCult": true,
    "cultType": "통일교",
    "region": "강원특별자치도 평창군 방림면",
    "website": "https://www.ffwp.org",
    "serviceTime": null,
    "pastor": null
  },
  {
    "id": "9944001",
    "name": "세계평화통일가정연합 정선교회",
    "type": "church",
    "address": "강원특별자치도 정선군 정선읍 봉양리 418",
    "roadAddress": "강원특별자치도 정선군 정선읍 봉양1길 144",
    "phone": "033-563-0815",
    "lat": 37.3826405592469,
    "lng": 128.659391251249,
    "kakaoUrl": "http://place.map.kakao.com/9944001",
    "category": "문화,예술 > 종교 > 통일교",
    "denomination": null,
    "isCult": true,
    "cultType": "통일교",
    "region": "강원특별자치도 정선군 북평면",
    "website": "https://www.ffwp.org/",
    "serviceTime": null,
    "pastor": null
  },
  {
    "id": "27494645",
    "name": "양구가정교회",
    "type": "church",
    "address": "강원특별자치도 양구군 양구읍 상리 202-18",
    "roadAddress": "강원특별자치도 양구군 양구읍 양구새싹로 35-1",
    "phone": "033-481-2435",
    "lat": 38.10272503379832,
    "lng": 127.98918206701853,
    "kakaoUrl": "http://place.map.kakao.com/27494645",
    "category": "문화,예술 > 종교 > 통일교",
    "denomination": null,
    "isCult": true,
    "cultType": "통일교",
    "region": "강원특별자치도 양구군 국토정중앙면",
    "website": "https://www.ffwp.org",
    "serviceTime": null,
    "pastor": null
  },
  {
    "id": "341099988",
    "name": "인제가정교회",
    "type": "church",
    "address": "강원특별자치도 인제군 인제읍 상동리 25-2",
    "roadAddress": "강원특별자치도 인제군 인제읍 인제로239번길 24",
    "phone": "033-461-2437",
    "lat": 38.0727969366575,
    "lng": 128.175686172137,
    "kakaoUrl": "http://place.map.kakao.com/341099988",
    "category": "문화,예술 > 종교 > 통일교",
    "denomination": null,
    "isCult": true,
    "cultType": "통일교",
    "region": "강원특별자치도 인제군 북면",
    "website": "https://cafe.daum.net/Injefamilychurch",
    "serviceTime": null,
    "pastor": null
  },
  {
    "id": "621925691",
    "name": "고성가정교회",
    "type": "church",
    "address": "강원특별자치도 고성군 거진읍 거진리 364-2",
    "roadAddress": "강원특별자치도 고성군 거진읍 수외북길 7",
    "phone": "033-682-2322",
    "lat": 38.442600317059124,
    "lng": 128.45221024227024,
    "kakaoUrl": "http://place.map.kakao.com/621925691",
    "category": "문화,예술 > 종교 > 통일교",
    "denomination": null,
    "isCult": true,
    "cultType": "통일교",
    "region": "강원특별자치도 고성군 현내면",
    "website": "https://www.ffwp.org",
    "serviceTime": null,
    "pastor": null
  },
  {
    "id": "10574575",
    "name": "양양가정교회",
    "type": "church",
    "address": "강원특별자치도 양양군 양양읍 남문리 187",
    "roadAddress": "강원특별자치도 양양군 양양읍 양양로 103-9",
    "phone": "033-671-0707",
    "lat": 38.073388369302,
    "lng": 128.618850713558,
    "kakaoUrl": "http://place.map.kakao.com/10574575",
    "category": "문화,예술 > 종교 > 통일교",
    "denomination": null,
    "isCult": true,
    "cultType": "통일교",
    "region": "강원특별자치도 양양군 손양면",
    "website": "http://cafe.daum.net/yangyangfamilych",
    "serviceTime": null,
    "pastor": null
  },
  {
    "id": "358675570",
    "name": "청주가정교회",
    "type": "church",
    "address": "충북 청주시 상당구 문화동 104-3",
    "roadAddress": "충북 청주시 상당구 상당로 56",
    "phone": "043-223-1802",
    "lat": 36.6332188585127,
    "lng": 127.491034519688,
    "kakaoUrl": "http://place.map.kakao.com/358675570",
    "category": "문화,예술 > 종교 > 통일교",
    "denomination": null,
    "isCult": true,
    "cultType": "통일교",
    "region": "충청북도 청주시상당구 문화동",
    "website": "https://blog.naver.com/timotion-283",
    "serviceTime": null,
    "pastor": null
  },
  {
    "id": "285319905",
    "name": "충북학사교회",
    "type": "church",
    "address": "충북 청주시 서원구 사창동 369-71",
    "roadAddress": "",
    "phone": null,
    "lat": 36.6292770526576,
    "lng": 127.462734470289,
    "kakaoUrl": "http://place.map.kakao.com/285319905",
    "category": "문화,예술 > 종교 > 통일교",
    "denomination": null,
    "isCult": true,
    "cultType": "통일교",
    "region": "충청북도 청주시흥덕구 사창동",
    "website": "https://policy.daum.net/info/info",
    "serviceTime": null,
    "pastor": null
  },
  {
    "id": "1013495284",
    "name": "신천지예수교증거장막성전 맛디아지파 청주교회",
    "type": "church",
    "address": "충북 청주시 흥덕구 신전동 29",
    "roadAddress": "충북 청주시 흥덕구 서부로 931",
    "phone": null,
    "lat": 36.6024252335177,
    "lng": 127.407145471956,
    "kakaoUrl": "http://place.map.kakao.com/1013495284",
    "category": "문화,예술 > 종교",
    "denomination": null,
    "isCult": true,
    "cultType": "신천지",
    "region": "충청북도 청주시흥덕구 수의동",
    "website": "https://policy.daum.net/info/info",
    "serviceTime": null,
    "pastor": null
  },
  {
    "id": "285269359",
    "name": "미원가정교회",
    "type": "church",
    "address": "충북 청주시 상당구 미원면 미원리 288-3",
    "roadAddress": "",
    "phone": null,
    "lat": 36.6370782796376,
    "lng": 127.659886956973,
    "kakaoUrl": "http://place.map.kakao.com/285269359",
    "category": "문화,예술 > 종교 > 통일교",
    "denomination": null,
    "isCult": true,
    "cultType": "통일교",
    "region": "충청북도 괴산군 청천면",
    "website": "https://policy.daum.net/info/info",
    "serviceTime": null,
    "pastor": null
  },
  {
    "id": "425878027",
    "name": "신천지예수교 증거장막성전 빌립지파 충주교회",
    "type": "church",
    "address": "충북 충주시 성서동 497",
    "roadAddress": "충북 충주시 사직로 191",
    "phone": "070-4441-6150",
    "lat": 36.96950226798993,
    "lng": 127.93239279215203,
    "kakaoUrl": "http://place.map.kakao.com/425878027",
    "category": "문화,예술 > 종교 > 기독교 > 교회",
    "denomination": null,
    "isCult": true,
    "cultType": "신천지",
    "region": "충청북도 충주시 교현2동",
    "website": "https://policy.daum.net/info/info",
    "serviceTime": null,
    "pastor": null
  },
  {
    "id": "19820972",
    "name": "보은가정교회",
    "type": "church",
    "address": "충북 보은군 보은읍 삼산리 13",
    "roadAddress": "충북 보은군 보은읍 삼산로1길 11-3",
    "phone": "043-544-2802",
    "lat": 36.4837523492193,
    "lng": 127.720968970181,
    "kakaoUrl": "http://place.map.kakao.com/19820972",
    "category": "문화,예술 > 종교 > 통일교",
    "denomination": null,
    "isCult": true,
    "cultType": "통일교",
    "region": "충청북도 보은군 삼승면",
    "website": "https://policy.daum.net/info/info",
    "serviceTime": null,
    "pastor": null
  },
  {
    "id": "26812663",
    "name": "여호와의증인왕국회관 충북보은회중",
    "type": "church",
    "address": "충북 보은군 삼승면 원남리 209-9",
    "roadAddress": "충북 보은군 삼승면 안내삼승로 663",
    "phone": "043-542-1935",
    "lat": 36.39444681433878,
    "lng": 127.725455710114,
    "kakaoUrl": "http://place.map.kakao.com/26812663",
    "category": "문화,예술 > 종교 > 종교시설",
    "denomination": null,
    "isCult": true,
    "cultType": "왕국회관",
    "region": "충청북도 옥천군 청산면",
    "website": "https://policy.daum.net/info/info",
    "serviceTime": null,
    "pastor": null
  },
  {
    "id": "8087172",
    "name": "증평가정교회",
    "type": "church",
    "address": "충북 증평군 증평읍 장동리 545",
    "roadAddress": "충북 증평군 증평읍 중앙로12길 15",
    "phone": null,
    "lat": 36.7861985678118,
    "lng": 127.58602263445,
    "kakaoUrl": "http://place.map.kakao.com/8087172",
    "category": "문화,예술 > 종교 > 통일교",
    "denomination": null,
    "isCult": true,
    "cultType": "통일교",
    "region": "충청북도 괴산군 증평읍",
    "website": "https://policy.daum.net/info/info",
    "serviceTime": null,
    "pastor": null
  },
  {
    "id": "23988198",
    "name": "괴산가정교회",
    "type": "church",
    "address": "충북 괴산군 괴산읍 서부리 379-1",
    "roadAddress": "충북 괴산군 괴산읍 읍내로4길 25",
    "phone": "043-832-2651",
    "lat": 36.8074994954639,
    "lng": 127.790484901609,
    "kakaoUrl": "http://place.map.kakao.com/23988198",
    "category": "문화,예술 > 종교 > 통일교",
    "denomination": null,
    "isCult": true,
    "cultType": "통일교",
    "region": "충청북도 괴산군 괴산읍",
    "website": "https://policy.daum.net/info/info",
    "serviceTime": null,
    "pastor": null
  },
  {
    "id": "25588252",
    "name": "단양가정교회",
    "type": "church",
    "address": "충북 단양군 단양읍 상진리 652",
    "roadAddress": "충북 단양군 단양읍 상진9길 1",
    "phone": "043-422-2771",
    "lat": 36.979648368719474,
    "lng": 128.35348734572406,
    "kakaoUrl": "http://place.map.kakao.com/25588252",
    "category": "문화,예술 > 종교 > 통일교",
    "denomination": null,
    "isCult": true,
    "cultType": "통일교",
    "region": "충청북도 단양군 단성면",
    "website": "https://blog.naver.com/dych2771",
    "serviceTime": null,
    "pastor": null
  },
  {
    "id": "9901140",
    "name": "여호와의증인의 왕국회관 충북단양회중(교회)",
    "type": "church",
    "address": "충북 단양군 단양읍 별곡리 344",
    "roadAddress": "충북 단양군 단양읍 별곡1로 10",
    "phone": null,
    "lat": 36.98408721859973,
    "lng": 128.36618880140193,
    "kakaoUrl": "http://place.map.kakao.com/9901140",
    "category": "문화,예술 > 종교 > 종교단체",
    "denomination": null,
    "isCult": true,
    "cultType": "왕국회관",
    "region": "충청북도 단양군 단성면",
    "website": "https://policy.daum.net/info/info",
    "serviceTime": null,
    "pastor": null
  },
  {
    "id": "12538090",
    "name": "기독교복음선교회",
    "type": "church",
    "address": "충남 금산군 진산면 석막리 65-2",
    "roadAddress": "충남 금산군 진산면 돌매기길 20",
    "phone": "041-752-2151",
    "lat": 36.1184224315825,
    "lng": 127.377465481126,
    "kakaoUrl": "http://place.map.kakao.com/12538090",
    "category": "문화,예술 > 종교 > 기독교 > 교회",
    "denomination": null,
    "isCult": true,
    "cultType": "기독교복음선교회",
    "region": "전북특별자치도 완주군 운주면",
    "website": "https://www.cgm.or.kr/",
    "serviceTime": null,
    "pastor": null
  },
  {
    "id": "778788565",
    "name": "신천지예수교 증거장막성전 맛디아지파 대전교회 주차장",
    "type": "church",
    "address": "대전 서구 용문동 241-13",
    "roadAddress": "대전 서구 탄방로 108-26",
    "phone": null,
    "lat": 36.3385364968603,
    "lng": 127.395491187921,
    "kakaoUrl": "http://place.map.kakao.com/778788565",
    "category": "교통,수송 > 교통시설 > 주차장",
    "denomination": null,
    "isCult": true,
    "cultType": "신천지",
    "region": "충청남도 대전시중구 용문동",
    "website": "https://policy.daum.net/info/info",
    "serviceTime": null,
    "pastor": null
  },
  {
    "id": "13496058",
    "name": "대전가정교회",
    "type": "church",
    "address": "대전 서구 가장동 21-1",
    "roadAddress": "대전 서구 가장로 165",
    "phone": "042-528-5303",
    "lat": 36.3311224571478,
    "lng": 127.390851653335,
    "kakaoUrl": "http://place.map.kakao.com/13496058",
    "category": "문화,예술 > 종교 > 통일교",
    "denomination": null,
    "isCult": true,
    "cultType": "통일교",
    "region": "충청남도 대전시중구 가장동",
    "website": "https://policy.daum.net/info/info",
    "serviceTime": null,
    "pastor": null
  },
  {
    "id": "285320913",
    "name": "대전학사교회",
    "type": "church",
    "address": "대전 유성구 궁동 419-12",
    "roadAddress": "",
    "phone": null,
    "lat": 36.3617708243517,
    "lng": 127.348522709698,
    "kakaoUrl": "http://place.map.kakao.com/285320913",
    "category": "문화,예술 > 종교 > 통일교",
    "denomination": null,
    "isCult": true,
    "cultType": "통일교",
    "region": "충청남도 대전시서구 온천2동",
    "website": "https://policy.daum.net/info/info",
    "serviceTime": null,
    "pastor": null
  },
  {
    "id": "9318371",
    "name": "유성가정교회",
    "type": "church",
    "address": "대전 유성구 구암동 596-4",
    "roadAddress": "대전 유성구 계룡로46번길 62",
    "phone": "042-822-5164",
    "lat": 36.3526545197186,
    "lng": 127.334658698389,
    "kakaoUrl": "http://place.map.kakao.com/9318371",
    "category": "문화,예술 > 종교 > 통일교",
    "denomination": null,
    "isCult": true,
    "cultType": "통일교",
    "region": "충청남도 대전시서구 온천1동",
    "website": "https://www.instagram.com/unitedbygod_yuseong",
    "serviceTime": null,
    "pastor": null
  },
  {
    "id": "24008043",
    "name": "병천가정교회",
    "type": "church",
    "address": "충남 천안시 동남구 병천면 병천리 148-5",
    "roadAddress": "충남 천안시 동남구 병천면 아우내1길 15",
    "phone": "041-565-5042",
    "lat": 36.763879019701,
    "lng": 127.298209351972,
    "kakaoUrl": "http://place.map.kakao.com/24008043",
    "category": "문화,예술 > 종교 > 통일교",
    "denomination": null,
    "isCult": true,
    "cultType": "통일교",
    "region": "충청남도 천안시동남구 병천면",
    "website": "https://policy.daum.net/info/info",
    "serviceTime": null,
    "pastor": null
  },
  {
    "id": "1143230340",
    "name": "신천지예수교 증거장막성전 맛디아지파 공주교회",
    "type": "church",
    "address": "충남 공주시 금성동 189",
    "roadAddress": "충남 공주시 왕릉로 132",
    "phone": "070-4441-6900",
    "lat": 36.4639773042222,
    "lng": 127.121759267903,
    "kakaoUrl": "http://place.map.kakao.com/1143230340",
    "category": "문화,예술 > 종교 > 기독교 > 교회",
    "denomination": null,
    "isCult": true,
    "cultType": "신천지",
    "region": "충청남도 공주시 사곡면",
    "website": "https://shincheonji.org",
    "serviceTime": null,
    "pastor": null
  },
  {
    "id": "8468660",
    "name": "왕국회관",
    "type": "church",
    "address": "충남 공주시 금학동 37-4",
    "roadAddress": "충남 공주시 원댕이길 24-10",
    "phone": null,
    "lat": 36.4404492628152,
    "lng": 127.129030129924,
    "kakaoUrl": "http://place.map.kakao.com/8468660",
    "category": "문화,예술 > 종교 > 기독교 > 교회",
    "denomination": null,
    "isCult": true,
    "cultType": "왕국회관",
    "region": "충청남도 공주시 계룡면",
    "website": "https://policy.daum.net/info/info",
    "serviceTime": null,
    "pastor": null
  },
  {
    "id": "1843295854",
    "name": "신천지예수교증거장막성전 시온교회",
    "type": "church",
    "address": "충남 공주시 금성동 189",
    "roadAddress": "충남 공주시 왕릉로 132",
    "phone": null,
    "lat": 36.4639449124694,
    "lng": 127.121710128016,
    "kakaoUrl": "http://place.map.kakao.com/1843295854",
    "category": "문화,예술 > 종교",
    "denomination": null,
    "isCult": true,
    "cultType": "신천지",
    "region": "충청남도 공주시 금성동",
    "website": "https://policy.daum.net/info/info",
    "serviceTime": null,
    "pastor": null
  },
  {
    "id": "1580447501",
    "name": "신천지예수교 증거장막성전 맛디아지파 아산교회",
    "type": "church",
    "address": "충남 아산시 모종동 583-43",
    "roadAddress": "충남 아산시 삼동로28번길 40",
    "phone": "070-4441-6925",
    "lat": 36.7815892671348,
    "lng": 127.015060669871,
    "kakaoUrl": "http://place.map.kakao.com/1580447501",
    "category": "문화,예술 > 종교 > 기독교 > 교회",
    "denomination": null,
    "isCult": true,
    "cultType": "신천지",
    "region": "충청남도 아산군",
    "website": "https://policy.daum.net/info/info",
    "serviceTime": null,
    "pastor": null
  },
  {
    "id": "1188999764",
    "name": "신천지예수교 증거장막성전 맛디아지파 서산교회",
    "type": "church",
    "address": "충남 서산시 읍내동 545",
    "roadAddress": "충남 서산시 부춘산1로 16",
    "phone": "070-4441-6907",
    "lat": 36.7893704669013,
    "lng": 126.446721194882,
    "kakaoUrl": "http://place.map.kakao.com/1188999764",
    "category": "문화,예술 > 종교 > 기독교 > 교회",
    "denomination": null,
    "isCult": true,
    "cultType": "신천지",
    "region": "충청남도 서산시 활성동",
    "website": "https://shincheonji.org",
    "serviceTime": null,
    "pastor": null
  },
  {
    "id": "1051342377",
    "name": "신천지예수교증거장막성전 논산교회",
    "type": "church",
    "address": "충남 논산시 취암동 1050-1",
    "roadAddress": "충남 논산시 중앙로410번길 6",
    "phone": null,
    "lat": 36.2006624480409,
    "lng": 127.08898675748,
    "kakaoUrl": "http://place.map.kakao.com/1051342377",
    "category": "문화,예술 > 종교 > 기독교 > 교회",
    "denomination": null,
    "isCult": true,
    "cultType": "신천지",
    "region": "충청남도 논산시 채운면",
    "website": "https://policy.daum.net/info/info",
    "serviceTime": null,
    "pastor": null
  },
  {
    "id": "10211029",
    "name": "금산가정교회",
    "type": "church",
    "address": "충남 금산군 금산읍 상리 32-20",
    "roadAddress": "충남 금산군 금산읍 후곤천길 55-2",
    "phone": null,
    "lat": 36.106650276420076,
    "lng": 127.48880046495218,
    "kakaoUrl": "http://place.map.kakao.com/10211029",
    "category": "문화,예술 > 종교 > 통일교",
    "denomination": null,
    "isCult": true,
    "cultType": "통일교",
    "region": "충청남도 금산군 금산읍",
    "website": "https://policy.daum.net/info/info",
    "serviceTime": null,
    "pastor": null
  },
  {
    "id": "285399167",
    "name": "공주가정교회",
    "type": "church",
    "address": "충남 공주시 중학동 3-3",
    "roadAddress": "충남 공주시 영명학당1길 17-2",
    "phone": null,
    "lat": 36.45065643995748,
    "lng": 127.12596274678702,
    "kakaoUrl": "http://place.map.kakao.com/285399167",
    "category": "문화,예술 > 종교 > 통일교",
    "denomination": null,
    "isCult": true,
    "cultType": "통일교",
    "region": "충청남도 공주군",
    "website": "https://policy.daum.net/info/info",
    "serviceTime": null,
    "pastor": null
  },
  {
    "id": "1148677088",
    "name": "서천가정교회",
    "type": "church",
    "address": "충남 서천군 서천읍 군사리 544-4",
    "roadAddress": "충남 서천군 서천읍 군사안길 9-9",
    "phone": "041-953-0604",
    "lat": 36.0773772545576,
    "lng": 126.694541228355,
    "kakaoUrl": "http://place.map.kakao.com/1148677088",
    "category": "문화,예술 > 종교 > 통일교",
    "denomination": null,
    "isCult": true,
    "cultType": "통일교",
    "region": "충청남도 서천군 서천읍",
    "website": "https://policy.daum.net/info/info",
    "serviceTime": null,
    "pastor": null
  },
  {
    "id": "5299822",
    "name": "태안가정교회",
    "type": "church",
    "address": "충남 태안군 태안읍 동문리 440-7",
    "roadAddress": "충남 태안군 태안읍 터널길 26-6",
    "phone": "041-674-3793",
    "lat": 36.7547562903979,
    "lng": 126.300377992605,
    "kakaoUrl": "http://place.map.kakao.com/5299822",
    "category": "문화,예술 > 종교 > 통일교",
    "denomination": null,
    "isCult": true,
    "cultType": "통일교",
    "region": "충청남도 태안군 태안읍",
    "website": "https://policy.daum.net/info/info",
    "serviceTime": null,
    "pastor": null
  },
  {
    "id": "9553713",
    "name": "통일교회",
    "type": "church",
    "address": "전북특별자치도 완주군 삼례읍 후정리 414-132",
    "roadAddress": "전북특별자치도 완주군 삼례읍 후정로 60-18",
    "phone": null,
    "lat": 35.909530567374,
    "lng": 127.066948377949,
    "kakaoUrl": "http://place.map.kakao.com/9553713",
    "category": "문화,예술 > 종교 > 기독교 > 교회",
    "denomination": null,
    "isCult": true,
    "cultType": "통일교",
    "region": "전북특별자치도 완주군 삼례읍",
    "website": "https://policy.daum.net/info/info",
    "serviceTime": null,
    "pastor": null
  },
  {
    "id": "11224940",
    "name": "군산가정교회",
    "type": "church",
    "address": "전북특별자치도 군산시 문화동 14-5",
    "roadAddress": "전북특별자치도 군산시 삼화길 60",
    "phone": "063-465-4834",
    "lat": 35.974701634772664,
    "lng": 126.7087344121956,
    "kakaoUrl": "http://place.map.kakao.com/11224940",
    "category": "문화,예술 > 종교 > 통일교",
    "denomination": null,
    "isCult": true,
    "cultType": "통일교",
    "region": "전라북도 군산시 문화동",
    "website": "https://policy.daum.net/info/info",
    "serviceTime": null,
    "pastor": null
  },
  {
    "id": "1523076063",
    "name": "신천지예수교 증거장막성전 도마지파 익산교회",
    "type": "church",
    "address": "전북특별자치도 익산시 창인동1가 258-1",
    "roadAddress": "전북특별자치도 익산시 인북로18길 9",
    "phone": "070-4441-7230",
    "lat": 35.93945555017643,
    "lng": 126.95427149497294,
    "kakaoUrl": "http://place.map.kakao.com/1523076063",
    "category": "문화,예술 > 종교",
    "denomination": null,
    "isCult": true,
    "cultType": "신천지",
    "region": "전라북도 이리시 중앙동",
    "website": null,
    "serviceTime": null,
    "pastor": null
  },
  {
    "id": "26074203",
    "name": "무주가정교회",
    "type": "church",
    "address": "전북특별자치도 무주군 무주읍 읍내리 757-5",
    "roadAddress": "전북특별자치도 무주군 무주읍 죽향로 15",
    "phone": "063-322-2456",
    "lat": 36.00855295951294,
    "lng": 127.65661011667402,
    "kakaoUrl": "http://place.map.kakao.com/26074203",
    "category": "문화,예술 > 종교 > 통일교",
    "denomination": null,
    "isCult": true,
    "cultType": "통일교",
    "region": "전북특별자치도 무주군 적상면",
    "website": "https://policy.daum.net/info/info",
    "serviceTime": null,
    "pastor": null
  },
  {
    "id": "285198379",
    "name": "장수가정교회",
    "type": "church",
    "address": "전북특별자치도 장수군 장수읍 장수리 692-6",
    "roadAddress": "전북특별자치도 장수군 장수읍 남동샛길 4-5",
    "phone": null,
    "lat": 35.64426591574204,
    "lng": 127.51693064812339,
    "kakaoUrl": "http://place.map.kakao.com/285198379",
    "category": "문화,예술 > 종교 > 통일교",
    "denomination": null,
    "isCult": true,
    "cultType": "통일교",
    "region": "전북특별자치도 장수군 계남면",
    "website": "https://policy.daum.net/info/info",
    "serviceTime": null,
    "pastor": null
  },
  {
    "id": "24040645",
    "name": "임실가정교회",
    "type": "church",
    "address": "전북특별자치도 임실군 임실읍 이도리 721-1",
    "roadAddress": "전북특별자치도 임실군 임실읍 봉황10길 53-11",
    "phone": null,
    "lat": 35.6145102808804,
    "lng": 127.280894506628,
    "kakaoUrl": "http://place.map.kakao.com/24040645",
    "category": "문화,예술 > 종교 > 통일교",
    "denomination": null,
    "isCult": true,
    "cultType": "통일교",
    "region": "전북특별자치도 임실군 청웅면",
    "website": "https://policy.daum.net/info/info",
    "serviceTime": null,
    "pastor": null
  },
  {
    "id": "414220743",
    "name": "순창가정교회",
    "type": "church",
    "address": "전북특별자치도 순창군 순창읍 순화리 731",
    "roadAddress": "전북특별자치도 순창군 순창읍 순화로 50-12",
    "phone": "063-653-2144",
    "lat": 35.3787056823603,
    "lng": 127.138261326284,
    "kakaoUrl": "http://place.map.kakao.com/414220743",
    "category": "문화,예술 > 종교 > 통일교",
    "denomination": null,
    "isCult": true,
    "cultType": "통일교",
    "region": "전라북도 순창군 순창읍",
    "website": "https://cafe.daum.net/sunchangfamilychurch",
    "serviceTime": null,
    "pastor": null
  },
  {
    "id": "10229119",
    "name": "금과통일교회",
    "type": "church",
    "address": "전북특별자치도 순창군 금과면 매우리 452-1",
    "roadAddress": "전북특별자치도 순창군 금과면 신매우길 20",
    "phone": null,
    "lat": 35.3366759543337,
    "lng": 127.08676456453,
    "kakaoUrl": "http://place.map.kakao.com/10229119",
    "category": "문화,예술 > 종교 > 기독교 > 교회",
    "denomination": null,
    "isCult": true,
    "cultType": "통일교",
    "region": "전북특별자치도 순창군 팔덕면",
    "website": "https://policy.daum.net/info/info",
    "serviceTime": null,
    "pastor": null
  },
  {
    "id": "1376847693",
    "name": "부안가정교회",
    "type": "church",
    "address": "전북특별자치도 부안군 부안읍 서외리 239-15",
    "roadAddress": "전북특별자치도 부안군 부안읍 서림공원길 24",
    "phone": null,
    "lat": 35.7324650712986,
    "lng": 126.732083433826,
    "kakaoUrl": "http://place.map.kakao.com/1376847693",
    "category": "문화,예술 > 종교 > 통일교",
    "denomination": null,
    "isCult": true,
    "cultType": "통일교",
    "region": "전라북도 부안군 부안읍",
    "website": "https://policy.daum.net/info/info",
    "serviceTime": null,
    "pastor": null
  },
  {
    "id": "285197531",
    "name": "광주학사교회",
    "type": "church",
    "address": "광주 북구 중흥동 336-8",
    "roadAddress": "",
    "phone": null,
    "lat": 35.1726870714751,
    "lng": 126.9108281178,
    "kakaoUrl": "http://place.map.kakao.com/285197531",
    "category": "문화,예술 > 종교 > 통일교",
    "denomination": null,
    "isCult": true,
    "cultType": "통일교",
    "region": "전라남도 광주시동구 중흥동",
    "website": "https://policy.daum.net/info/info",
    "serviceTime": null,
    "pastor": null
  },
  {
    "id": "532323650",
    "name": "우리은행 365코너 통일교 국제해양교회",
    "type": "church",
    "address": "전남 여수시 화양면 장수리 313",
    "roadAddress": "전남 여수시 화양면 장수로 183-5",
    "phone": null,
    "lat": 34.645634201133,
    "lng": 127.610480322711,
    "kakaoUrl": "http://place.map.kakao.com/532323650",
    "category": "금융,보험 > 금융서비스 > 은행 > ATM",
    "denomination": null,
    "isCult": true,
    "cultType": "통일교",
    "region": "전라남도 여수시 화정면",
    "website": "https://www.wooribank.com",
    "serviceTime": null,
    "pastor": null
  },
  {
    "id": "1465781636",
    "name": "거문도가정교회",
    "type": "church",
    "address": "전남 여수시 삼산면 거문리 87-25",
    "roadAddress": "전남 여수시 삼산면 거문길 108",
    "phone": "061-665-1801",
    "lat": 34.02774723789149,
    "lng": 127.30906317128964,
    "kakaoUrl": "http://place.map.kakao.com/1465781636",
    "category": "문화,예술 > 종교 > 통일교",
    "denomination": null,
    "isCult": true,
    "cultType": "통일교",
    "region": "전라남도 여수시 삼산면",
    "website": "https://policy.daum.net/info/info",
    "serviceTime": null,
    "pastor": null
  },
  {
    "id": "9208910",
    "name": "순천가정교회",
    "type": "church",
    "address": "전남 순천시 동외동 59-154",
    "roadAddress": "전남 순천시 감사터길 127",
    "phone": null,
    "lat": 34.95652260869028,
    "lng": 127.48923099067181,
    "kakaoUrl": "http://place.map.kakao.com/9208910",
    "category": "문화,예술 > 종교 > 통일교",
    "denomination": null,
    "isCult": true,
    "cultType": "통일교",
    "region": "전라남도 순천시 중앙동",
    "website": "https://policy.daum.net/info/info",
    "serviceTime": null,
    "pastor": null
  },
  {
    "id": "1704310136",
    "name": "서순천가정교회",
    "type": "church",
    "address": "전남 순천시 주암면 창촌리 286-1",
    "roadAddress": "전남 순천시 주암면 동주로 2479",
    "phone": null,
    "lat": 35.0607087737705,
    "lng": 127.275932633954,
    "kakaoUrl": "http://place.map.kakao.com/1704310136",
    "category": "문화,예술 > 종교 > 통일교",
    "denomination": null,
    "isCult": true,
    "cultType": "통일교",
    "region": "전라남도 곡성군 목사동면",
    "website": "https://blog.naver.com/ssc-0106",
    "serviceTime": null,
    "pastor": null
  },
  {
    "id": "1056809113",
    "name": "광양가정교회",
    "type": "church",
    "address": "전남 광양시 광양읍 구산리 825-5",
    "roadAddress": "전남 광양시 광양읍 서평4길 8",
    "phone": "061-761-7720",
    "lat": 34.9776024950012,
    "lng": 127.573991385446,
    "kakaoUrl": "http://place.map.kakao.com/1056809113",
    "category": "문화,예술 > 종교 > 통일교",
    "denomination": null,
    "isCult": true,
    "cultType": "통일교",
    "region": "전라남도 광양시 광양읍",
    "website": "https://policy.daum.net/info/info",
    "serviceTime": null,
    "pastor": null
  },
  {
    "id": "8567616",
    "name": "통일교회",
    "type": "church",
    "address": "전남 광양시 광양읍 구산리 825-5",
    "roadAddress": "전남 광양시 광양읍 서평4길 8",
    "phone": "061-762-0629",
    "lat": 34.9776360625918,
    "lng": 127.574136174887,
    "kakaoUrl": "http://place.map.kakao.com/8567616",
    "category": "문화,예술 > 종교 > 기독교 > 교회",
    "denomination": null,
    "isCult": true,
    "cultType": "통일교",
    "region": "전라남도 광양시 봉강면",
    "website": "https://policy.daum.net/info/info",
    "serviceTime": null,
    "pastor": null
  },
  {
    "id": "680402245",
    "name": "하동가정교회",
    "type": "church",
    "address": "경남 하동군 하동읍 광평리 299-14",
    "roadAddress": "경남 하동군 하동읍 남당길 48",
    "phone": "055-883-6694",
    "lat": 35.0656238959851,
    "lng": 127.748065176717,
    "kakaoUrl": "http://place.map.kakao.com/680402245",
    "category": "문화,예술 > 종교 > 통일교",
    "denomination": null,
    "isCult": true,
    "cultType": "통일교",
    "region": "경상남도 하동군 횡천면",
    "website": "https://youtube.com/@hadonge?si=zcJnlDhZpLP7Piw6",
    "serviceTime": null,
    "pastor": null
  },
  {
    "id": "1587292095",
    "name": "담양가정교회",
    "type": "church",
    "address": "전남 담양군 담양읍 객사리 122-26",
    "roadAddress": "전남 담양군 담양읍 죽녹원로 81",
    "phone": "061-381-2934",
    "lat": 35.32191256143642,
    "lng": 126.98502571407663,
    "kakaoUrl": "http://place.map.kakao.com/1587292095",
    "category": "문화,예술 > 종교 > 통일교",
    "denomination": null,
    "isCult": true,
    "cultType": "통일교",
    "region": "전라남도 담양군 담양읍",
    "website": "https://policy.daum.net/info/info",
    "serviceTime": null,
    "pastor": null
  },
  {
    "id": "285137309",
    "name": "곡성가정교회",
    "type": "church",
    "address": "전남 곡성군 곡성읍 읍내리 462-1",
    "roadAddress": "전남 곡성군 곡성읍 읍내23길 27",
    "phone": null,
    "lat": 35.28380203110071,
    "lng": 127.29541289891095,
    "kakaoUrl": "http://place.map.kakao.com/285137309",
    "category": "문화,예술 > 종교 > 통일교",
    "denomination": null,
    "isCult": true,
    "cultType": "통일교",
    "region": "전라남도 곡성군 삼기면",
    "website": "https://policy.daum.net/info/info",
    "serviceTime": null,
    "pastor": null
  },
  {
    "id": "26574913",
    "name": "구례가정교회",
    "type": "church",
    "address": "전남 구례군 구례읍 봉남리 117-5",
    "roadAddress": "전남 구례군 구례읍 구례2길 8",
    "phone": "061-782-2766",
    "lat": 35.207099675105,
    "lng": 127.463841121682,
    "kakaoUrl": "http://place.map.kakao.com/26574913",
    "category": "문화,예술 > 종교 > 통일교",
    "denomination": null,
    "isCult": true,
    "cultType": "통일교",
    "region": "전라남도 구례군 용방면",
    "website": "https://policy.daum.net/info/info",
    "serviceTime": null,
    "pastor": null
  },
  {
    "id": "285041542",
    "name": "고흥가정교회",
    "type": "church",
    "address": "전남 고흥군 고흥읍 옥하리 156",
    "roadAddress": "전남 고흥군 고흥읍 후동길 8-23",
    "phone": null,
    "lat": 34.61105204363983,
    "lng": 127.28660626505864,
    "kakaoUrl": "http://place.map.kakao.com/285041542",
    "category": "문화,예술 > 종교 > 통일교",
    "denomination": null,
    "isCult": true,
    "cultType": "통일교",
    "region": "전라남도 고흥군 두원면",
    "website": "https://policy.daum.net/info/info",
    "serviceTime": null,
    "pastor": null
  },
  {
    "id": "26812530",
    "name": "여호와의증인 고흥왕국회관",
    "type": "church",
    "address": "전남 고흥군 고흥읍 남계리 48",
    "roadAddress": "전남 고흥군 고흥읍 고흥로 1918-45",
    "phone": null,
    "lat": 34.62121415606377,
    "lng": 127.29558050954789,
    "kakaoUrl": "http://place.map.kakao.com/26812530",
    "category": "문화,예술 > 종교 > 종교시설",
    "denomination": null,
    "isCult": true,
    "cultType": "왕국회관",
    "region": "전라남도 고흥군 두원면",
    "website": "https://policy.daum.net/info/info",
    "serviceTime": null,
    "pastor": null
  },
  {
    "id": "11056757",
    "name": "보성가정교회",
    "type": "church",
    "address": "전남 보성군 보성읍 보성리 771-1",
    "roadAddress": "전남 보성군 보성읍 인사길 9",
    "phone": "061-852-2417",
    "lat": 34.7706378574881,
    "lng": 127.081204098743,
    "kakaoUrl": "http://place.map.kakao.com/11056757",
    "category": "문화,예술 > 종교 > 통일교",
    "denomination": null,
    "isCult": true,
    "cultType": "통일교",
    "region": "전라남도 장흥군 장평면",
    "website": "https://policy.daum.net/info/info",
    "serviceTime": null,
    "pastor": null
  },
  {
    "id": "11032966",
    "name": "관산통일교회",
    "type": "church",
    "address": "전남 장흥군 관산읍 옥당리 333",
    "roadAddress": "전남 장흥군 관산읍 관산우회로 8",
    "phone": null,
    "lat": 34.5593070787267,
    "lng": 126.939395194348,
    "kakaoUrl": "http://place.map.kakao.com/11032966",
    "category": "문화,예술 > 종교 > 기독교 > 교회",
    "denomination": null,
    "isCult": true,
    "cultType": "통일교",
    "region": "전라남도 장흥군 회진면",
    "website": "https://policy.daum.net/info/info",
    "serviceTime": null,
    "pastor": null
  },
  {
    "id": "8108971",
    "name": "장흥가정교회",
    "type": "church",
    "address": "전남 장흥군 장흥읍 건산리 546-12",
    "roadAddress": "전남 장흥군 장흥읍 장흥로 71-12",
    "phone": "061-863-2745",
    "lat": 34.6845246574787,
    "lng": 126.910769825484,
    "kakaoUrl": "http://place.map.kakao.com/8108971",
    "category": "문화,예술 > 종교 > 통일교",
    "denomination": null,
    "isCult": true,
    "cultType": "통일교",
    "region": "전라남도 장흥군 부산면",
    "website": "https://policy.daum.net/info/info",
    "serviceTime": null,
    "pastor": null
  },
  {
    "id": "285186017",
    "name": "강진가정교회",
    "type": "church",
    "address": "전남 강진군 강진읍 남성리 170-1",
    "roadAddress": "전남 강진군 강진읍 영랑로 56",
    "phone": null,
    "lat": 34.640386573463616,
    "lng": 126.76716689041389,
    "kakaoUrl": "http://place.map.kakao.com/285186017",
    "category": "문화,예술 > 종교 > 통일교",
    "denomination": null,
    "isCult": true,
    "cultType": "통일교",
    "region": "전라남도 강진군 강진읍",
    "website": "https://policy.daum.net/info/info",
    "serviceTime": null,
    "pastor": null
  },
  {
    "id": "1406722785",
    "name": "신천지예수교증거장막성전 베드로지파 강진교회",
    "type": "church",
    "address": "전남 강진군 성전면 월평리 38-1",
    "roadAddress": "전남 강진군 성전면 별뫼로 373",
    "phone": null,
    "lat": 34.691287451654,
    "lng": 126.707289674578,
    "kakaoUrl": "http://place.map.kakao.com/1406722785",
    "category": "문화,예술 > 종교",
    "denomination": null,
    "isCult": true,
    "cultType": "신천지",
    "region": "전라남도 강진군 옴천면",
    "website": "https://policy.daum.net/info/info",
    "serviceTime": null,
    "pastor": null
  },
  {
    "id": "1517970649",
    "name": "해남가정교회",
    "type": "church",
    "address": "전남 해남군 해남읍 수성리 155",
    "roadAddress": "전남 해남군 해남읍 군청길 46",
    "phone": "061-536-3386",
    "lat": 34.5758794832039,
    "lng": 126.599338284448,
    "kakaoUrl": "http://place.map.kakao.com/1517970649",
    "category": "문화,예술 > 종교 > 통일교",
    "denomination": null,
    "isCult": true,
    "cultType": "통일교",
    "region": "전라남도 해남군 해남읍",
    "website": "https://policy.daum.net/info/info",
    "serviceTime": null,
    "pastor": null
  },
  {
    "id": "285115398",
    "name": "영암가정교회",
    "type": "church",
    "address": "전남 영암군 영암읍 남풍리 222-7",
    "roadAddress": "전남 영암군 영암읍 성밖1길 22",
    "phone": null,
    "lat": 34.79574931796544,
    "lng": 126.69851251465634,
    "kakaoUrl": "http://place.map.kakao.com/285115398",
    "category": "문화,예술 > 종교 > 통일교",
    "denomination": null,
    "isCult": true,
    "cultType": "통일교",
    "region": "전라남도 영암군 영암읍",
    "website": "https://policy.daum.net/info/info",
    "serviceTime": null,
    "pastor": null
  },
  {
    "id": "995637775",
    "name": "세계평화통일가정연합 무안가정교회",
    "type": "church",
    "address": "전남 무안군 무안읍 성남리 615-1",
    "roadAddress": "전남 무안군 무안읍 무안로 365",
    "phone": null,
    "lat": 34.9794930995793,
    "lng": 126.468270070654,
    "kakaoUrl": "http://place.map.kakao.com/995637775",
    "category": "문화,예술 > 종교 > 통일교",
    "denomination": null,
    "isCult": true,
    "cultType": "통일교",
    "region": "전라남도 무안군 무안읍",
    "website": "https://policy.daum.net/info/info",
    "serviceTime": null,
    "pastor": null
  },
  {
    "id": "787879026",
    "name": "함평가정교회",
    "type": "church",
    "address": "전남 함평군 함평읍 내교리 41",
    "roadAddress": "전남 함평군 함평읍 서부길 21",
    "phone": "061-322-2011",
    "lat": 35.059337267966846,
    "lng": 126.51928134086742,
    "kakaoUrl": "http://place.map.kakao.com/787879026",
    "category": "문화,예술 > 종교 > 통일교",
    "denomination": null,
    "isCult": true,
    "cultType": "통일교",
    "region": "전라남도 함평군 함평읍",
    "website": "https://policy.daum.net/info/info",
    "serviceTime": null,
    "pastor": null
  },
  {
    "id": "733244595",
    "name": "세계평화통일가정연합 장성가정교회",
    "type": "church",
    "address": "전남 장성군 장성읍 영천리 1486-8",
    "roadAddress": "전남 장성군 장성읍 역전로 202",
    "phone": null,
    "lat": 35.304983099869,
    "lng": 126.786722622881,
    "kakaoUrl": "http://place.map.kakao.com/733244595",
    "category": "문화,예술 > 종교 > 통일교",
    "denomination": null,
    "isCult": true,
    "cultType": "통일교",
    "region": "전라남도 장성군 서삼면",
    "website": "https://policy.daum.net/info/info",
    "serviceTime": null,
    "pastor": null
  },
  {
    "id": "1880888460",
    "name": "완도가정교회",
    "type": "church",
    "address": "전남 완도군 완도읍 군내리 1246-10",
    "roadAddress": "전남 완도군 완도읍 개포로56번길 11-8",
    "phone": "061-554-4247",
    "lat": 34.3168769581156,
    "lng": 126.747280649076,
    "kakaoUrl": "http://place.map.kakao.com/1880888460",
    "category": "문화,예술 > 종교 > 통일교",
    "denomination": null,
    "isCult": true,
    "cultType": "통일교",
    "region": "전라남도 완도군 완도읍",
    "website": "https://policy.daum.net/info/info",
    "serviceTime": null,
    "pastor": null
  },
  {
    "id": "10035430",
    "name": "진도가정교회",
    "type": "church",
    "address": "전남 진도군 진도읍 남동리 614-2",
    "roadAddress": "전남 진도군 진도읍 남동3길 13",
    "phone": "061-542-9478",
    "lat": 34.4823728705126,
    "lng": 126.262405472994,
    "kakaoUrl": "http://place.map.kakao.com/10035430",
    "category": "문화,예술 > 종교 > 통일교",
    "denomination": null,
    "isCult": true,
    "cultType": "통일교",
    "region": "전라남도 진도군 고군면",
    "website": "https://www.instagram.com/jindo.ffwpu",
    "serviceTime": null,
    "pastor": null
  },
  {
    "id": "25747056",
    "name": "수성가정교회",
    "type": "church",
    "address": "대구 수성구 범어동 24-16",
    "roadAddress": "대구 수성구 상록로 56",
    "phone": "053-654-9191",
    "lat": 35.864403257722,
    "lng": 128.624244706922,
    "kakaoUrl": "http://place.map.kakao.com/25747056",
    "category": "문화,예술 > 종교 > 통일교",
    "denomination": null,
    "isCult": true,
    "cultType": "통일교",
    "region": "경상북도 대구시동구 범어동",
    "website": "https://policy.daum.net/info/info",
    "serviceTime": null,
    "pastor": null
  },
  {
    "id": "284919288",
    "name": "경주가정교회",
    "type": "church",
    "address": "경북 경주시 사정동 65-83",
    "roadAddress": "경북 경주시 사정로 21",
    "phone": null,
    "lat": 35.837310374609885,
    "lng": 129.205270328833,
    "kakaoUrl": "http://place.map.kakao.com/284919288",
    "category": "문화,예술 > 종교 > 통일교",
    "denomination": null,
    "isCult": true,
    "cultType": "통일교",
    "region": "경상북도 경주군",
    "website": "https://policy.daum.net/info/info",
    "serviceTime": null,
    "pastor": null
  },
  {
    "id": "50851985",
    "name": "신천지예수교 증거장막성전 다대오지파 안동교회",
    "type": "church",
    "address": "경북 안동시 남부동 235-38",
    "roadAddress": "경북 안동시 문화광장길 16-10",
    "phone": "070-4441-6065",
    "lat": 36.5636326481057,
    "lng": 128.730980888867,
    "kakaoUrl": "http://place.map.kakao.com/50851985",
    "category": "문화,예술 > 종교",
    "denomination": null,
    "isCult": true,
    "cultType": "신천지",
    "region": "경상북도 안동시 임하면",
    "website": "https://shincheonji.org/",
    "serviceTime": null,
    "pastor": null
  },
  {
    "id": "9556649",
    "name": "선산가정교회",
    "type": "church",
    "address": "경북 구미시 선산읍 이문리 133-1",
    "roadAddress": "경북 구미시 선산읍 선산중앙로 17-2",
    "phone": "054-481-4374",
    "lat": 36.2393680319611,
    "lng": 128.295494861118,
    "kakaoUrl": "http://place.map.kakao.com/9556649",
    "category": "문화,예술 > 종교 > 통일교",
    "denomination": null,
    "isCult": true,
    "cultType": "통일교",
    "region": "경상북도 구미시 도개면",
    "website": "https://policy.daum.net/info/info",
    "serviceTime": null,
    "pastor": null
  },
  {
    "id": "266567551",
    "name": "영천가정교회",
    "type": "church",
    "address": "경북 영천시 문외동 182-9",
    "roadAddress": "경북 영천시 동문길 123",
    "phone": "054-334-3774",
    "lat": 35.97067592057446,
    "lng": 128.9369855211599,
    "kakaoUrl": "http://place.map.kakao.com/266567551",
    "category": "문화,예술 > 종교 > 통일교",
    "denomination": null,
    "isCult": true,
    "cultType": "통일교",
    "region": "경상북도 영천시 중앙동",
    "website": "https://blog.naver.com/yc_familychurch",
    "serviceTime": null,
    "pastor": null
  },
  {
    "id": "10904965",
    "name": "통일교회",
    "type": "church",
    "address": "경북 영천시 문외동 182-9",
    "roadAddress": "경북 영천시 동문길 123",
    "phone": "054-334-3774",
    "lat": 35.9707380285215,
    "lng": 128.936933831568,
    "kakaoUrl": "http://place.map.kakao.com/10904965",
    "category": "문화,예술 > 종교 > 기독교",
    "denomination": null,
    "isCult": true,
    "cultType": "통일교",
    "region": "경상북도 영천시 중앙동",
    "website": "https://policy.daum.net/info/info",
    "serviceTime": null,
    "pastor": null
  },
  {
    "id": "24057428",
    "name": "의성가정교회",
    "type": "church",
    "address": "경북 의성군 의성읍 후죽리 458-61",
    "roadAddress": "경북 의성군 의성읍 홍술로 162-5",
    "phone": null,
    "lat": 36.3561489075641,
    "lng": 128.69699193263,
    "kakaoUrl": "http://place.map.kakao.com/24057428",
    "category": "문화,예술 > 종교 > 통일교",
    "denomination": null,
    "isCult": true,
    "cultType": "통일교",
    "region": "경상북도 의성군 점곡면",
    "website": "https://policy.daum.net/info/info",
    "serviceTime": null,
    "pastor": null
  },
  {
    "id": "284730566",
    "name": "청송가정교회",
    "type": "church",
    "address": "경북 청송군 청송읍 월막리 252-9",
    "roadAddress": "경북 청송군 청송읍 중앙로 265-1",
    "phone": null,
    "lat": 36.43424026435501,
    "lng": 129.05808065094956,
    "kakaoUrl": "http://place.map.kakao.com/284730566",
    "category": "문화,예술 > 종교 > 통일교",
    "denomination": null,
    "isCult": true,
    "cultType": "통일교",
    "region": "경상북도 청송군 파천면",
    "website": "https://policy.daum.net/info/info",
    "serviceTime": null,
    "pastor": null
  },
  {
    "id": "2053815163",
    "name": "영덕가정교회",
    "type": "church",
    "address": "경북 영덕군 영덕읍 우곡리 341-3",
    "roadAddress": "경북 영덕군 영덕읍 우곡길 33-8",
    "phone": "070-4045-7500",
    "lat": 36.4074038792287,
    "lng": 129.37202496262,
    "kakaoUrl": "http://place.map.kakao.com/2053815163",
    "category": "문화,예술 > 종교 > 통일교",
    "denomination": null,
    "isCult": true,
    "cultType": "통일교",
    "region": "경상북도 영덕군 지품면",
    "website": "https://policy.daum.net/info/info",
    "serviceTime": null,
    "pastor": null
  },
  {
    "id": "284737288",
    "name": "안강가정교회",
    "type": "church",
    "address": "경북 경주시 안강읍 양월리 1245-3",
    "roadAddress": "",
    "phone": null,
    "lat": 35.9899265123367,
    "lng": 129.218052324274,
    "kakaoUrl": "http://place.map.kakao.com/284737288",
    "category": "문화,예술 > 종교 > 통일교",
    "denomination": null,
    "isCult": true,
    "cultType": "통일교",
    "region": "경상북도 경주군 안강읍",
    "website": "https://policy.daum.net/info/info",
    "serviceTime": null,
    "pastor": null
  },
  {
    "id": "11224938",
    "name": "통일교회",
    "type": "church",
    "address": "경북 고령군 대가야읍 헌문리 49-3",
    "roadAddress": "경북 고령군 대가야읍 대가야로 1349",
    "phone": "054-954-2343",
    "lat": 35.7287464422026,
    "lng": 128.270851563972,
    "kakaoUrl": "http://place.map.kakao.com/11224938",
    "category": "문화,예술 > 종교 > 기독교 > 교회",
    "denomination": null,
    "isCult": true,
    "cultType": "통일교",
    "region": "경상남도 합천군 야로면",
    "website": "https://policy.daum.net/info/info",
    "serviceTime": null,
    "pastor": null
  },
  {
    "id": "12407150",
    "name": "고령가정교회",
    "type": "church",
    "address": "경북 고령군 대가야읍 헌문리 49-3",
    "roadAddress": "경북 고령군 대가야읍 대가야로 1349",
    "phone": null,
    "lat": 35.7287536506203,
    "lng": 128.270851678495,
    "kakaoUrl": "http://place.map.kakao.com/12407150",
    "category": "문화,예술 > 종교 > 통일교",
    "denomination": null,
    "isCult": true,
    "cultType": "통일교",
    "region": "경상남도 합천군 야로면",
    "website": "https://youtube.com/@goryeong-church",
    "serviceTime": null,
    "pastor": null
  },
  {
    "id": "23858650",
    "name": "성주가정교회",
    "type": "church",
    "address": "경북 성주군 초전면 대장리 681-1",
    "roadAddress": "경북 성주군 초전면 대장길 64",
    "phone": "010-8923-7023",
    "lat": 35.970582163718305,
    "lng": 128.26465289415003,
    "kakaoUrl": "http://place.map.kakao.com/23858650",
    "category": "문화,예술 > 종교 > 통일교",
    "denomination": null,
    "isCult": true,
    "cultType": "통일교",
    "region": "경상북도 성주군 초전면",
    "website": "https://policy.daum.net/info/info",
    "serviceTime": null,
    "pastor": null
  },
  {
    "id": "284790121",
    "name": "상주가정교회",
    "type": "church",
    "address": "경북 상주시 서문동 47",
    "roadAddress": "경북 상주시 삼백로 129-15",
    "phone": null,
    "lat": 36.41901087513999,
    "lng": 128.15712431395423,
    "kakaoUrl": "http://place.map.kakao.com/284790121",
    "category": "문화,예술 > 종교 > 통일교",
    "denomination": null,
    "isCult": true,
    "cultType": "통일교",
    "region": "경상북도 상주군",
    "website": "https://policy.daum.net/info/info",
    "serviceTime": null,
    "pastor": null
  },
  {
    "id": "24011816",
    "name": "예천가정교회",
    "type": "church",
    "address": "경북 예천군 예천읍 서본리 288-3",
    "roadAddress": "경북 예천군 예천읍 흑응로 9-2",
    "phone": "054-654-3581",
    "lat": 36.6550946753178,
    "lng": 128.447021327219,
    "kakaoUrl": "http://place.map.kakao.com/24011816",
    "category": "문화,예술 > 종교 > 통일교",
    "denomination": null,
    "isCult": true,
    "cultType": "통일교",
    "region": "경상북도 예천군 은풍면",
    "website": "https://policy.daum.net/info/info",
    "serviceTime": null,
    "pastor": null
  },
  {
    "id": "545511464",
    "name": "봉화가정교회",
    "type": "church",
    "address": "경북 봉화군 봉화읍 내성리 171",
    "roadAddress": "경북 봉화군 봉화읍 내성로1길 17-33",
    "phone": null,
    "lat": 36.8870237829719,
    "lng": 128.739227431323,
    "kakaoUrl": "http://place.map.kakao.com/545511464",
    "category": "문화,예술 > 종교 > 통일교",
    "denomination": null,
    "isCult": true,
    "cultType": "통일교",
    "region": "경상북도 봉화군 상운면",
    "website": "https://policy.daum.net/info/info",
    "serviceTime": null,
    "pastor": null
  },
  {
    "id": "23858480",
    "name": "울진가정교회",
    "type": "church",
    "address": "경북 울진군 울진읍 읍내리 50-10",
    "roadAddress": "경북 울진군 울진읍 읍내3길 37-3",
    "phone": "054-783-2966",
    "lat": 36.9929913121198,
    "lng": 129.403056838363,
    "kakaoUrl": "http://place.map.kakao.com/23858480",
    "category": "문화,예술 > 종교 > 통일교",
    "denomination": null,
    "isCult": true,
    "cultType": "통일교",
    "region": "경상북도 울진군 매화면",
    "website": "https://policy.daum.net/info/info",
    "serviceTime": null,
    "pastor": null
  },
  {
    "id": "284737207",
    "name": "울릉가정교회",
    "type": "church",
    "address": "경북 울릉군 울릉읍 도동리 228-9",
    "roadAddress": "경북 울릉군 울릉읍 도동6길 9",
    "phone": null,
    "lat": 37.48554341764289,
    "lng": 130.9024853667423,
    "kakaoUrl": "http://place.map.kakao.com/284737207",
    "category": "문화,예술 > 종교 > 통일교",
    "denomination": null,
    "isCult": true,
    "cultType": "통일교",
    "region": "경상북도 울릉군 울릉읍",
    "website": "https://policy.daum.net/info/info",
    "serviceTime": null,
    "pastor": null
  },
  {
    "id": "1573993020",
    "name": "신천지예수교증거장막성전 마산교회",
    "type": "church",
    "address": "경남 창원시 의창구 소계동 130-83",
    "roadAddress": "경남 창원시 의창구 구암동정길 88",
    "phone": null,
    "lat": 35.2543986944891,
    "lng": 128.601876114965,
    "kakaoUrl": "http://place.map.kakao.com/1573993020",
    "category": "문화,예술 > 종교 > 기독교 > 교회",
    "denomination": null,
    "isCult": true,
    "cultType": "신천지",
    "region": "경상남도 마산시 구암2동",
    "website": "https://policy.daum.net/info/info",
    "serviceTime": null,
    "pastor": null
  },
  {
    "id": "117644821",
    "name": "신천지예수교 증거장막성전 안드레지파 창원교회",
    "type": "church",
    "address": "경남 창원시 성산구 남산동 601-1",
    "roadAddress": "경남 창원시 성산구 정동로 164",
    "phone": "070-4441-5912",
    "lat": 35.204840697201085,
    "lng": 128.6918545766576,
    "kakaoUrl": "http://place.map.kakao.com/117644821",
    "category": "문화,예술 > 종교",
    "denomination": null,
    "isCult": true,
    "cultType": "신천지",
    "region": "경상남도 창원시성산구 성산동",
    "website": "https://shincheonji.org",
    "serviceTime": null,
    "pastor": null
  },
  {
    "id": "22482435",
    "name": "창원가정교회",
    "type": "church",
    "address": "경남 창원시 성산구 상남동 65-2",
    "roadAddress": "경남 창원시 성산구 토월로43번길 43",
    "phone": "055-285-4701",
    "lat": 35.2162498175884,
    "lng": 128.678153380001,
    "kakaoUrl": "http://place.map.kakao.com/22482435",
    "category": "문화,예술 > 종교 > 통일교",
    "denomination": null,
    "isCult": true,
    "cultType": "통일교",
    "region": "경상남도 창원시성산구 성산동",
    "website": "https://youtube.com/@5tv907?si=KdDRymi8I-8w8xFB",
    "serviceTime": null,
    "pastor": null
  },
  {
    "id": "10291815",
    "name": "동창원가정교회",
    "type": "church",
    "address": "경남 창원시 성산구 용호동 73-62",
    "roadAddress": "경남 창원시 성산구 원이대로 587",
    "phone": "055-287-7671",
    "lat": 35.2284196890051,
    "lng": 128.679467185897,
    "kakaoUrl": "http://place.map.kakao.com/10291815",
    "category": "문화,예술 > 종교 > 통일교",
    "denomination": null,
    "isCult": true,
    "cultType": "통일교",
    "region": "경상남도 창원시성산구 성산동",
    "website": "https://youtube.com/@dcw-hc?si=vXKfyiWofCBPEk-j",
    "serviceTime": null,
    "pastor": null
  },
  {
    "id": "251085214",
    "name": "신천지예수교 증거장막성전 부산야고보지파 진해교회",
    "type": "church",
    "address": "경남 창원시 진해구 여좌동 121-2",
    "roadAddress": "경남 창원시 진해구 여좌남로55번길 19",
    "phone": "070-4441-5809",
    "lat": 35.1564613021248,
    "lng": 128.66203524563,
    "kakaoUrl": "http://place.map.kakao.com/251085214",
    "category": "문화,예술 > 종교 > 기독교 > 교회",
    "denomination": null,
    "isCult": true,
    "cultType": "신천지",
    "region": "경상남도 진해시 태백동",
    "website": "https://shincheonji.org",
    "serviceTime": null,
    "pastor": null
  },
  {
    "id": "8624303",
    "name": "진해가정교회",
    "type": "church",
    "address": "경남 창원시 진해구 광화동 14",
    "roadAddress": "경남 창원시 진해구 중원로43번길 5-1",
    "phone": null,
    "lat": 35.1479902749607,
    "lng": 128.658838912107,
    "kakaoUrl": "http://place.map.kakao.com/8624303",
    "category": "문화,예술 > 종교 > 통일교",
    "denomination": null,
    "isCult": true,
    "cultType": "통일교",
    "region": "경상남도 진해시 송죽동",
    "website": "https://policy.daum.net/info/info",
    "serviceTime": null,
    "pastor": null
  },
  {
    "id": "284612264",
    "name": "울주가정교회",
    "type": "church",
    "address": "울산 울주군 언양읍 서부리 180-21",
    "roadAddress": "",
    "phone": null,
    "lat": 35.5671632165639,
    "lng": 129.118946017336,
    "kakaoUrl": "http://place.map.kakao.com/284612264",
    "category": "문화,예술 > 종교 > 통일교",
    "denomination": null,
    "isCult": true,
    "cultType": "통일교",
    "region": "경상남도 울산시 서부리",
    "website": "https://policy.daum.net/info/info",
    "serviceTime": null,
    "pastor": null
  },
  {
    "id": "23823238",
    "name": "마산가정교회",
    "type": "church",
    "address": "경남 창원시 마산합포구 장군동5가 6-2",
    "roadAddress": "경남 창원시 마산합포구 고운로 235",
    "phone": "055-246-6156",
    "lat": 35.2008141455662,
    "lng": 128.56648151757443,
    "kakaoUrl": "http://place.map.kakao.com/23823238",
    "category": "문화,예술 > 종교 > 통일교",
    "denomination": null,
    "isCult": true,
    "cultType": "통일교",
    "region": "경상남도 마산시합포구 완월동",
    "website": "https://youtube.com/channel/UCgxircswnyVubJj3u7eaH0Q?feature=shared",
    "serviceTime": null,
    "pastor": null
  },
  {
    "id": "10675054",
    "name": "의령통일교회",
    "type": "church",
    "address": "경남 의령군 의령읍 중동리 403-10",
    "roadAddress": "경남 의령군 의령읍 의병로22길 19-17",
    "phone": null,
    "lat": 35.3185272291459,
    "lng": 128.263603796074,
    "kakaoUrl": "http://place.map.kakao.com/10675054",
    "category": "문화,예술 > 종교 > 기독교 > 교회",
    "denomination": null,
    "isCult": true,
    "cultType": "통일교",
    "region": "경상남도 의령군 정곡면",
    "website": "https://policy.daum.net/info/info",
    "serviceTime": null,
    "pastor": null
  },
  {
    "id": "1254184617",
    "name": "신천지예수교 증거장막성전 부산야고보지파 통영교회",
    "type": "church",
    "address": "경남 통영시 무전동 1028-2",
    "roadAddress": "경남 통영시 무전6길 14-21",
    "phone": "070-4441-9286",
    "lat": 34.859415381907816,
    "lng": 128.42511003670603,
    "kakaoUrl": "http://place.map.kakao.com/1254184617",
    "category": "문화,예술 > 종교 > 기독교 > 교회",
    "denomination": null,
    "isCult": true,
    "cultType": "신천지",
    "region": "경상남도 거제시 둔덕면",
    "website": "https://shincheonji.org",
    "serviceTime": null,
    "pastor": null
  },
  {
    "id": "26117231",
    "name": "밀양가정교회",
    "type": "church",
    "address": "경남 밀양시 삼문동 391-2",
    "roadAddress": "경남 밀양시 남천강변로2길 15",
    "phone": null,
    "lat": 35.4915937934499,
    "lng": 128.748348351652,
    "kakaoUrl": "http://place.map.kakao.com/26117231",
    "category": "문화,예술 > 종교 > 통일교",
    "denomination": null,
    "isCult": true,
    "cultType": "통일교",
    "region": "경상남도 밀양시 내이동",
    "website": "https://www.instagram.com/miryang_familychurch",
    "serviceTime": null,
    "pastor": null
  },
  {
    "id": "23846069",
    "name": "의령가정교회",
    "type": "church",
    "address": "경남 의령군 의령읍 중동리 400-5",
    "roadAddress": "경남 의령군 의령읍 의병로22길 19-17",
    "phone": null,
    "lat": 35.318552000748,
    "lng": 128.263648166352,
    "kakaoUrl": "http://place.map.kakao.com/23846069",
    "category": "문화,예술 > 종교 > 통일교",
    "denomination": null,
    "isCult": true,
    "cultType": "통일교",
    "region": "경상남도 의령군 용덕면",
    "website": "https://policy.daum.net/info/info",
    "serviceTime": null,
    "pastor": null
  },
  {
    "id": "11383569",
    "name": "함안가정교회",
    "type": "church",
    "address": "경남 함안군 가야읍 말산리 54-1",
    "roadAddress": "경남 함안군 가야읍 가야로 113",
    "phone": "055-583-2507",
    "lat": 35.2787665784011,
    "lng": 128.413492736126,
    "kakaoUrl": "http://place.map.kakao.com/11383569",
    "category": "문화,예술 > 종교 > 통일교",
    "denomination": null,
    "isCult": true,
    "cultType": "통일교",
    "region": "경상남도 함안군 가야읍",
    "website": "https://www.instagram.com/haman.family.church/",
    "serviceTime": null,
    "pastor": null
  },
  {
    "id": "12522211",
    "name": "여호와증인의왕국회관 칠원회중",
    "type": "church",
    "address": "경남 함안군 칠원읍 구성리 713",
    "roadAddress": "경남 함안군 칠원읍 덕산1길 38",
    "phone": null,
    "lat": 35.3082571545855,
    "lng": 128.520889860024,
    "kakaoUrl": "http://place.map.kakao.com/12522211",
    "category": "문화,예술 > 종교 > 기독교 > 교회",
    "denomination": null,
    "isCult": true,
    "cultType": "왕국회관",
    "region": "경상남도 함안군 칠원면",
    "website": "https://policy.daum.net/info/info",
    "serviceTime": null,
    "pastor": null
  },
  {
    "id": "284630967",
    "name": "창녕가정교회",
    "type": "church",
    "address": "경남 창녕군 창녕읍 교리 185",
    "roadAddress": "경남 창녕군 창녕읍 솔재길 19",
    "phone": null,
    "lat": 35.5441643179411,
    "lng": 128.50055536933942,
    "kakaoUrl": "http://place.map.kakao.com/284630967",
    "category": "문화,예술 > 종교 > 통일교",
    "denomination": null,
    "isCult": true,
    "cultType": "통일교",
    "region": "경상남도 창녕군 유어면",
    "website": "https://blog.naver.com/ckdsudryghl19/223714599805",
    "serviceTime": null,
    "pastor": null
  },
  {
    "id": "23838086",
    "name": "김해가정교회",
    "type": "church",
    "address": "경남 김해시 봉황동 380-1",
    "roadAddress": "경남 김해시 분성로288번길 7-10",
    "phone": "055-336-3368",
    "lat": 35.2322300800552,
    "lng": 128.878099595015,
    "kakaoUrl": "http://place.map.kakao.com/23838086",
    "category": "문화,예술 > 종교 > 통일교",
    "denomination": null,
    "isCult": true,
    "cultType": "통일교",
    "region": "경상남도 김해군",
    "website": "https://policy.daum.net/info/info",
    "serviceTime": null,
    "pastor": null
  },
  {
    "id": "23845662",
    "name": "거제가정교회",
    "type": "church",
    "address": "경남 거제시 옥포동 524-22",
    "roadAddress": "경남 거제시 옥포로20길 5",
    "phone": "055-688-3442",
    "lat": 34.8945815218139,
    "lng": 128.69144376922,
    "kakaoUrl": "http://place.map.kakao.com/23845662",
    "category": "문화,예술 > 종교 > 통일교",
    "denomination": null,
    "isCult": true,
    "cultType": "통일교",
    "region": "경상남도 거제군",
    "website": "https://policy.daum.net/info/info",
    "serviceTime": null,
    "pastor": null
  },
  {
    "id": "8881648",
    "name": "남해가정교회",
    "type": "church",
    "address": "경남 남해군 남해읍 북변리 497-8",
    "roadAddress": "경남 남해군 남해읍 화전로122번가길 16",
    "phone": "055-864-3008",
    "lat": 34.84313259629188,
    "lng": 127.89628796261356,
    "kakaoUrl": "http://place.map.kakao.com/8881648",
    "category": "문화,예술 > 종교 > 통일교",
    "denomination": null,
    "isCult": true,
    "cultType": "통일교",
    "region": "경상남도 남해군 설천면",
    "website": "https://blog.naver.com/namhae3008",
    "serviceTime": null,
    "pastor": null
  },
  {
    "id": "284695854",
    "name": "산청가정교회",
    "type": "church",
    "address": "경남 산청군 산청읍 옥산리 152",
    "roadAddress": "경남 산청군 산청읍 꽃봉산로91번길 20-22",
    "phone": null,
    "lat": 35.41339914407251,
    "lng": 127.87641957497569,
    "kakaoUrl": "http://place.map.kakao.com/284695854",
    "category": "문화,예술 > 종교 > 통일교",
    "denomination": null,
    "isCult": true,
    "cultType": "통일교",
    "region": "경상남도 함양군 유림면",
    "website": "https://policy.daum.net/info/info",
    "serviceTime": null,
    "pastor": null
  },
  {
    "id": "284620314",
    "name": "함양가정교회",
    "type": "church",
    "address": "경남 함양군 함양읍 교산리 96",
    "roadAddress": "경남 함양군 함양읍 한들로 214",
    "phone": null,
    "lat": 35.525528863860615,
    "lng": 127.73490854279419,
    "kakaoUrl": "http://place.map.kakao.com/284620314",
    "category": "문화,예술 > 종교 > 통일교",
    "denomination": null,
    "isCult": true,
    "cultType": "통일교",
    "region": "경상남도 함양군 병곡면",
    "website": "https://www.instagram.com/hamyang_hyojeong",
    "serviceTime": null,
    "pastor": null
  },
  {
    "id": "23851686",
    "name": "거창가정교회",
    "type": "church",
    "address": "경남 거창군 거창읍 중앙리 344-10",
    "roadAddress": "경남 거창군 거창읍 아림로3길 32",
    "phone": "055-943-2970",
    "lat": 35.68900403414087,
    "lng": 127.91110466094602,
    "kakaoUrl": "http://place.map.kakao.com/23851686",
    "category": "문화,예술 > 종교 > 통일교",
    "denomination": null,
    "isCult": true,
    "cultType": "통일교",
    "region": "경상남도 거창군 위천면",
    "website": "https://www.youtube.com/@geochangch",
    "serviceTime": null,
    "pastor": null
  },
  {
    "id": "116161209",
    "name": "합천가정교회",
    "type": "church",
    "address": "경남 합천군 합천읍 합천리 689-4",
    "roadAddress": "경남 합천군 합천읍 충효로2길 4",
    "phone": "055-931-2519",
    "lat": 35.5644471998274,
    "lng": 128.161567277363,
    "kakaoUrl": "http://place.map.kakao.com/116161209",
    "category": "문화,예술 > 종교 > 통일교",
    "denomination": null,
    "isCult": true,
    "cultType": "통일교",
    "region": "경상남도 합천군 용주면",
    "website": "https://www.instagram.com/hapcheon_family",
    "serviceTime": null,
    "pastor": null
  }
]