[
  {
    "id": "22377855",
    "name": "사랑의교회",
    "type": "church",
    "address": "서울 서초구 서초동 1541-1",
    "roadAddress": "서울 서초구 반포대로 121",
    "phone": "02-3495-1000",
    "lat": 37.49079306489833,
    "lng": 127.00746299878162,
    "kakaoUrl": "http://place.map.kakao.com/22377855",
    "category": "문화,예술 > 종교 > 기독교 > 교회",
    "denomination": null,
    "isCult": false,
    "cultType": null,
    "region": "서울특별시 강남구 서초동",
    "website": null,
    "serviceTime": null,
    "pastor": null
  },
  {
    "id": "17010406",
    "name": "오륜교회",
    "type": "church",
    "address": "서울 강동구 성내동 449-7",
    "roadAddress": "서울 강동구 강동대로 235",
    "phone": "02-485-4004",
    "lat": 37.522741716368,
    "lng": 127.132395701923,
    "kakaoUrl": "http://place.map.kakao.com/17010406",
    "category": "문화,예술 > 종교 > 기독교 > 교회",
    "denomination": null,
    "isCult": false,
    "cultType": null,
    "region": "서울특별시 강동구 성내동",
    "website": null,
    "serviceTime": null,
    "pastor": null
  },
  {
    "id": "9717455",
    "name": "온누리교회",
    "type": "church",
    "address": "서울 용산구 용산동6가 69-172",
    "roadAddress": "서울 용산구 이촌로 347-11",
    "phone": "02-793-9686",
    "lat": 37.51809373766583,
    "lng": 126.9851862079945,
    "kakaoUrl": "http://place.map.kakao.com/9717455",
    "category": "문화,예술 > 종교 > 기독교 > 교회",
    "denomination": null,
    "isCult": false,
    "cultType": null,
    "region": "서울특별시 서초구 반포3동",
    "website": null,
    "serviceTime": null,
    "pastor": null
  },
  {
    "id": "8011787",
    "name": "여의도순복음교회",
    "type": "church",
    "address": "서울 영등포구 여의도동 11",
    "roadAddress": "서울 영등포구 국회대로76길 15",
    "phone": "02-6181-9191",
    "lat": 37.53099544758003,
    "lng": 126.92315776116541,
    "kakaoUrl": "http://place.map.kakao.com/8011787",
    "category": "문화,예술 > 종교 > 기독교 > 교회",
    "denomination": null,
    "isCult": false,
    "cultType": null,
    "region": "서울특별시 영등포구 여의도동",
    "website": null,
    "serviceTime": null,
    "pastor": null
  },
  {
    "id": "7937569",
    "name": "영락교회",
    "type": "church",
    "address": "서울 중구 저동2가 69",
    "roadAddress": "서울 중구 수표로 33",
    "phone": "02-2280-0114",
    "lat": 37.5640307301773,
    "lng": 126.988998287545,
    "kakaoUrl": "http://place.map.kakao.com/7937569",
    "category": "문화,예술 > 종교 > 기독교 > 교회",
    "denomination": null,
    "isCult": false,
    "cultType": null,
    "region": "서울특별시 중구 서소문동",
    "website": null,
    "serviceTime": null,
    "pastor": null
  },
  {
    "id": "8490868",
    "name": "충현교회",
    "type": "church",
    "address": "서울 강남구 역삼동 665-1",
    "roadAddress": "서울 강남구 테헤란로27길 40",
    "phone": "02-552-8200",
    "lat": 37.5047899661841,
    "lng": 127.037258624327,
    "kakaoUrl": "http://place.map.kakao.com/8490868",
    "category": "문화,예술 > 종교 > 기독교 > 교회",
    "denomination": null,
    "isCult": false,
    "cultType": null,
    "region": "서울특별시 강남구 역삼2동",
    "website": null,
    "serviceTime": null,
    "pastor": null
  },
  {
    "id": "11648382",
    "name": "양재온누리교회",
    "type": "church",
    "address": "서울 서초구 양재동 55",
    "roadAddress": "서울 서초구 바우뫼로31길 70",
    "phone": "02-573-9686",
    "lat": 37.4795050951847,
    "lng": 127.033949274284,
    "kakaoUrl": "http://place.map.kakao.com/11648382",
    "category": "문화,예술 > 종교 > 기독교 > 교회",
    "denomination": null,
    "isCult": false,
    "cultType": null,
    "region": "서울특별시 강남구 도곡2동",
    "website": null,
    "serviceTime": null,
    "pastor": null
  },
  {
    "id": "8238992",
    "name": "금란교회",
    "type": "church",
    "address": "서울 중랑구 망우동 340-1",
    "roadAddress": "서울 중랑구 망우로 455",
    "phone": "02-490-7000",
    "lat": 37.6007110191529,
    "lng": 127.102742085796,
    "kakaoUrl": "http://place.map.kakao.com/8238992",
    "category": "문화,예술 > 종교 > 기독교 > 교회",
    "denomination": null,
    "isCult": false,
    "cultType": null,
    "region": "서울특별시 중랑구 망우3동",
    "website": null,
    "serviceTime": null,
    "pastor": null
  },
  {
    "id": "553818334",
    "name": "새문안교회",
    "type": "church",
    "address": "서울 종로구 신문로1가 42",
    "roadAddress": "서울 종로구 새문안로 79",
    "phone": null,
    "lat": 37.5707929620233,
    "lng": 126.97357539180554,
    "kakaoUrl": "http://place.map.kakao.com/553818334",
    "category": "문화,예술 > 종교 > 기독교 > 교회",
    "denomination": null,
    "isCult": false,
    "cultType": null,
    "region": "서울특별시 서대문구 미근동",
    "website": "http://www.saemoonan.org/",
    "serviceTime": null,
    "pastor": null
  },
  {
    "id": "17111880",
    "name": "소망교회",
    "type": "church",
    "address": "서울 강남구 신사동 624",
    "roadAddress": "서울 강남구 압구정로36길 55",
    "phone": "02-512-9191",
    "lat": 37.5251146284509,
    "lng": 127.031707381281,
    "kakaoUrl": "http://place.map.kakao.com/17111880",
    "category": "문화,예술 > 종교 > 기독교 > 교회",
    "denomination": null,
    "isCult": false,
    "cultType": null,
    "region": "서울특별시 강남구 압구정2동",
    "website": "http://www.somang.net",
    "serviceTime": null,
    "pastor": null
  },
  {
    "id": "9815987",
    "name": "삼일교회",
    "type": "church",
    "address": "서울 용산구 청파동1가 180-36",
    "roadAddress": "서울 용산구 청파로 304",
    "phone": "02-713-2660",
    "lat": 37.546782507101,
    "lng": 126.970677914288,
    "kakaoUrl": "http://place.map.kakao.com/9815987",
    "category": "문화,예술 > 종교 > 기독교 > 교회",
    "denomination": null,
    "isCult": false,
    "cultType": null,
    "region": "서울특별시 마포구 공덕1동",
    "website": "https://policy.daum.net/info/info",
    "serviceTime": null,
    "pastor": null
  },
  {
    "id": "8406782",
    "name": "신길교회",
    "type": "church",
    "address": "서울 영등포구 신길동 63-3",
    "roadAddress": "서울 영등포구 영등포로67가길 9",
    "phone": "02-831-2015",
    "lat": 37.515120166336125,
    "lng": 126.91966755673508,
    "kakaoUrl": "http://place.map.kakao.com/8406782",
    "category": "문화,예술 > 종교 > 기독교 > 교회",
    "denomination": null,
    "isCult": false,
    "cultType": null,
    "region": "서울특별시 동작구 대방동",
    "website": "https://policy.daum.net/info/info",
    "serviceTime": null,
    "pastor": null
  },
  {
    "id": "8061146",
    "name": "정동제일교회",
    "type": "church",
    "address": "서울 중구 정동 34-3",
    "roadAddress": "서울 중구 정동길 46",
    "phone": "02-753-0001",
    "lat": 37.5654120237026,
    "lng": 126.972730643183,
    "kakaoUrl": "http://place.map.kakao.com/8061146",
    "category": "문화,예술 > 종교 > 기독교 > 교회",
    "denomination": null,
    "isCult": false,
    "cultType": null,
    "region": "서울특별시 서대문구 냉천동",
    "website": "https://policy.daum.net/info/info",
    "serviceTime": null,
    "pastor": null
  },
  {
    "id": "8088135",
    "name": "청운교회",
    "type": "church",
    "address": "서울 강남구 역삼동 779-10",
    "roadAddress": "서울 강남구 언주로65길 6",
    "phone": "02-569-7001",
    "lat": 37.495672610058,
    "lng": 127.045219667111,
    "kakaoUrl": "http://place.map.kakao.com/8088135",
    "category": "문화,예술 > 종교 > 기독교 > 교회",
    "denomination": null,
    "isCult": false,
    "cultType": null,
    "region": "서울특별시 강남구 도곡1동",
    "website": "https://policy.daum.net/info/info",
    "serviceTime": null,
    "pastor": null
  },
  {
    "id": "8497576",
    "name": "연세중앙교회",
    "type": "church",
    "address": "서울 구로구 궁동 189-1",
    "roadAddress": "서울 구로구 부일로 977",
    "phone": "02-2680-0001",
    "lat": 37.49538792502602,
    "lng": 126.83520468951967,
    "kakaoUrl": "http://place.map.kakao.com/8497576",
    "category": "문화,예술 > 종교 > 기독교 > 교회",
    "denomination": null,
    "isCult": false,
    "cultType": null,
    "region": "서울특별시 영등포구 궁동",
    "website": "https://policy.daum.net/info/info",
    "serviceTime": null,
    "pastor": null
  },
  {
    "id": "18935959",
    "name": "도림교회",
    "type": "church",
    "address": "서울 영등포구 도림동 205-24",
    "roadAddress": "서울 영등포구 도영로 37",
    "phone": "02-2181-6000",
    "lat": 37.50944519588113,
    "lng": 126.89702798967103,
    "kakaoUrl": "http://place.map.kakao.com/18935959",
    "category": "문화,예술 > 종교 > 기독교 > 교회",
    "denomination": null,
    "isCult": false,
    "cultType": null,
    "region": "서울특별시 영등포구 신길2동",
    "website": "https://policy.daum.net/info/info",
    "serviceTime": null,
    "pastor": null
  },
  {
    "id": "8769333",
    "name": "광림교회 본당",
    "type": "church",
    "address": "서울 강남구 신사동 571-2",
    "roadAddress": "서울 강남구 논현로175길 49",
    "phone": "02-2056-5600",
    "lat": 37.5243953086956,
    "lng": 127.025598249546,
    "kakaoUrl": "http://place.map.kakao.com/8769333",
    "category": "문화,예술 > 종교 > 기독교 > 교회",
    "denomination": null,
    "isCult": false,
    "cultType": null,
    "region": "서울특별시 강남구 압구정2동",
    "website": "https://policy.daum.net/info/info",
    "serviceTime": null,
    "pastor": null
  },
  {
    "id": "2139404473",
    "name": "향린교회",
    "type": "church",
    "address": "서울 종로구 내수동 110-5",
    "roadAddress": "서울 종로구 경희궁2길 11",
    "phone": "02-776-9141",
    "lat": 37.57312061951292,
    "lng": 126.97137169556092,
    "kakaoUrl": "http://place.map.kakao.com/2139404473",
    "category": "문화,예술 > 종교 > 기독교 > 교회",
    "denomination": null,
    "isCult": false,
    "cultType": null,
    "region": "서울특별시 서대문구 영천동",
    "website": "https://policy.daum.net/info/info",
    "serviceTime": null,
    "pastor": null
  },
  {
    "id": "9063836",
    "name": "사랑제일교회",
    "type": "church",
    "address": "서울 성북구 장위동 69-72",
    "roadAddress": "서울 성북구 돌곶이로27가길 21",
    "phone": "02-912-0191",
    "lat": 37.61282771560669,
    "lng": 127.05343618799567,
    "kakaoUrl": "http://place.map.kakao.com/9063836",
    "category": "문화,예술 > 종교 > 기독교 > 교회",
    "denomination": null,
    "isCult": false,
    "cultType": null,
    "region": "서울특별시 노원구 월계1동",
    "website": "http://sarangjeil.com/",
    "serviceTime": null,
    "pastor": null
  },
  {
    "id": "1578600646",
    "name": "남서울교회",
    "type": "church",
    "address": "서울 서초구 반포동 4-12",
    "roadAddress": "서울 서초구 신반포로19길 36",
    "phone": "02-2023-5600",
    "lat": 37.5047452786401,
    "lng": 126.994969455281,
    "kakaoUrl": "http://place.map.kakao.com/1578600646",
    "category": "문화,예술 > 종교 > 기독교 > 교회",
    "denomination": null,
    "isCult": false,
    "cultType": null,
    "region": "서울특별시 강남구 반포동",
    "website": "https://www.namseoul.org/",
    "serviceTime": null,
    "pastor": null
  },
  {
    "id": "11431879",
    "name": "명성교회 베들레헴성전",
    "type": "church",
    "address": "서울 강동구 명일동 331-1",
    "roadAddress": "서울 강동구 구천면로 452",
    "phone": "02-440-9000",
    "lat": 37.54824478303686,
    "lng": 127.1481069958968,
    "kakaoUrl": "http://place.map.kakao.com/11431879",
    "category": "문화,예술 > 종교 > 기독교 > 교회",
    "denomination": null,
    "isCult": false,
    "cultType": null,
    "region": "서울특별시 강동구 고덕동",
    "website": null,
    "serviceTime": null,
    "pastor": null
  },
  {
    "id": "11328618",
    "name": "한성교회",
    "type": "church",
    "address": "서울 양천구 신정동 758-1",
    "roadAddress": "서울 양천구 신정로13길 21",
    "phone": null,
    "lat": 37.51130069886226,
    "lng": 126.84256687882261,
    "kakaoUrl": "http://place.map.kakao.com/11328618",
    "category": "문화,예술 > 종교 > 기독교 > 교회",
    "denomination": null,
    "isCult": false,
    "cultType": null,
    "region": "서울특별시 양천구 신정3동",
    "website": "https://policy.daum.net/info/info",
    "serviceTime": null,
    "pastor": null
  },
  {
    "id": "23736800",
    "name": "베이직교회",
    "type": "church",
    "address": "서울 강남구 논현동 32-18",
    "roadAddress": "서울 강남구 논현로145길 19",
    "phone": "02-518-1335",
    "lat": 37.51746081726561,
    "lng": 127.02726547222258,
    "kakaoUrl": "http://place.map.kakao.com/23736800",
    "category": "문화,예술 > 종교 > 기독교 > 교회",
    "denomination": null,
    "isCult": false,
    "cultType": null,
    "region": "서울특별시 강남구 압구정2동",
    "website": "http://www.basicchurch.or.kr",
    "serviceTime": null,
    "pastor": null
  },
  {
    "id": "7848125",
    "name": "동안교회",
    "type": "church",
    "address": "서울 동대문구 이문동 346-99",
    "roadAddress": "서울 동대문구 회기로25길 67",
    "phone": "02-962-0727",
    "lat": 37.59289619563,
    "lng": 127.056891301527,
    "kakaoUrl": "http://place.map.kakao.com/7848125",
    "category": "문화,예술 > 종교 > 기독교 > 교회",
    "denomination": null,
    "isCult": false,
    "cultType": null,
    "region": "서울특별시 동대문구 이문1동",
    "website": "http://www.dongan.org/",
    "serviceTime": null,
    "pastor": null
  },
  {
    "id": "989564077",
    "name": "서울성락교회 본당",
    "type": "church",
    "address": "서울 영등포구 신길동 355-20",
    "roadAddress": "서울 영등포구 도림로 307",
    "phone": null,
    "lat": 37.5047876717331,
    "lng": 126.902053622778,
    "kakaoUrl": "http://place.map.kakao.com/989564077",
    "category": "문화,예술 > 종교 > 기독교 > 교회",
    "denomination": null,
    "isCult": false,
    "cultType": null,
    "region": "서울특별시 영등포구 대림3동",
    "website": null,
    "serviceTime": null,
    "pastor": null
  },
  {
    "id": "8833639",
    "name": "국제루터교회",
    "type": "church",
    "address": "서울 용산구 한남동 726-39",
    "roadAddress": "서울 용산구 한남대로 148",
    "phone": "02-794-6274",
    "lat": 37.541805359461,
    "lng": 127.003883401872,
    "kakaoUrl": "http://place.map.kakao.com/8833639",
    "category": "문화,예술 > 종교 > 기독교 > 교회",
    "denomination": null,
    "isCult": false,
    "cultType": null,
    "region": "서울특별시 성동구 옥수2동",
    "website": "http://www.ilcseoul.org/",
    "serviceTime": null,
    "pastor": null
  },
  {
    "id": "14852003",
    "name": "맑은샘광천교회",
    "type": "church",
    "address": "서울 성북구 석관동 340-78",
    "roadAddress": "서울 성북구 화랑로 192",
    "phone": "02-959-6002",
    "lat": 37.6075810297567,
    "lng": 127.051923913796,
    "kakaoUrl": "http://place.map.kakao.com/14852003",
    "category": "문화,예술 > 종교 > 기독교 > 교회",
    "denomination": null,
    "isCult": false,
    "cultType": null,
    "region": "서울특별시 성북구 석관2동",
    "website": "http://www.kwangchun.or.kr/",
    "serviceTime": null,
    "pastor": null
  },
  {
    "id": "11465199",
    "name": "한국기독교100주년기념교회",
    "type": "church",
    "address": "서울 마포구 합정동 142-1",
    "roadAddress": "서울 마포구 양화진길 46",
    "phone": "02-332-9177",
    "lat": 37.54649909889785,
    "lng": 126.91176363196843,
    "kakaoUrl": "http://place.map.kakao.com/11465199",
    "category": "문화,예술 > 종교 > 기독교 > 교회",
    "denomination": null,
    "isCult": false,
    "cultType": null,
    "region": "서울특별시 영등포구 양평2동",
    "website": null,
    "serviceTime": null,
    "pastor": null
  },
  {
    "id": "18371326",
    "name": "예원교회",
    "type": "church",
    "address": "서울 강서구 등촌동 659-1",
    "roadAddress": "서울 강서구 화곡로63길 65",
    "phone": "02-3661-2000",
    "lat": 37.5575606280682,
    "lng": 126.85009543374,
    "kakaoUrl": "http://place.map.kakao.com/18371326",
    "category": "문화,예술 > 종교 > 기독교 > 교회",
    "denomination": null,
    "isCult": false,
    "cultType": null,
    "region": "경기도 고양시덕양구 덕은동",
    "website": "https://www.iyewon.org/",
    "serviceTime": null,
    "pastor": null
  },
  {
    "id": "27335668",
    "name": "사랑하는교회",
    "type": "church",
    "address": "서울 송파구 오금동 28",
    "roadAddress": "서울 송파구 위례성대로22길 27-22",
    "phone": "02-586-3079",
    "lat": 37.50737903313648,
    "lng": 127.13129976405467,
    "kakaoUrl": "http://place.map.kakao.com/27335668",
    "category": "문화,예술 > 종교 > 기독교 > 교회",
    "denomination": null,
    "isCult": false,
    "cultType": null,
    "region": "서울특별시 송파구 오금동",
    "website": "http://www.belovedc.com",
    "serviceTime": null,
    "pastor": null
  },
  {
    "id": "12730013",
    "name": "강남교회",
    "type": "church",
    "address": "서울 동작구 노량진동 222-73",
    "roadAddress": "서울 동작구 만양로 76",
    "phone": "02-814-7606",
    "lat": 37.5103512961659,
    "lng": 126.945103244543,
    "kakaoUrl": "http://place.map.kakao.com/12730013",
    "category": "문화,예술 > 종교 > 기독교 > 교회",
    "denomination": null,
    "isCult": false,
    "cultType": null,
    "region": "서울특별시 관악구 노량진동",
    "website": null,
    "serviceTime": null,
    "pastor": null
  },
  {
    "id": "8903942",
    "name": "연동교회",
    "type": "church",
    "address": "서울 종로구 연지동 136-12",
    "roadAddress": "서울 종로구 김상옥로 37",
    "phone": "02-763-7244",
    "lat": 37.5736646781052,
    "lng": 127.001503308236,
    "kakaoUrl": "http://place.map.kakao.com/8903942",
    "category": "문화,예술 > 종교 > 기독교 > 교회",
    "denomination": null,
    "isCult": false,
    "cultType": null,
    "region": "서울특별시 중구 인현동1가",
    "website": "https://policy.daum.net/info/info",
    "serviceTime": null,
    "pastor": null
  },
  {
    "id": "9675170",
    "name": "경동교회",
    "type": "church",
    "address": "서울 중구 장충동1가 26-6",
    "roadAddress": "서울 중구 장충단로 204",
    "phone": "02-2274-0161",
    "lat": 37.5630867788126,
    "lng": 127.007203087935,
    "kakaoUrl": "http://place.map.kakao.com/9675170",
    "category": "문화,예술 > 종교 > 기독교 > 교회",
    "denomination": null,
    "isCult": false,
    "cultType": null,
    "region": "서울특별시 중구 신당6동",
    "website": "https://policy.daum.net/info/info",
    "serviceTime": null,
    "pastor": null
  },
  {
    "id": "10393578",
    "name": "베다니교회",
    "type": "church",
    "address": "서울 구로구 구로동 169-2",
    "roadAddress": "서울 구로구 도림로20길 11",
    "phone": "02-838-0050",
    "lat": 37.4895414642503,
    "lng": 126.8924079844,
    "kakaoUrl": "http://place.map.kakao.com/10393578",
    "category": "문화,예술 > 종교 > 기독교 > 교회",
    "denomination": null,
    "isCult": false,
    "cultType": null,
    "region": "서울특별시 영등포구 대림2동",
    "website": "https://policy.daum.net/info/info",
    "serviceTime": null,
    "pastor": null
  },
  {
    "id": "11104591",
    "name": "염광교회",
    "type": "church",
    "address": "서울 도봉구 창동 662-59",
    "roadAddress": "서울 도봉구 도봉로120길 16",
    "phone": "02-908-9100",
    "lat": 37.6504986919634,
    "lng": 127.037435550106,
    "kakaoUrl": "http://place.map.kakao.com/11104591",
    "category": "문화,예술 > 종교 > 기독교 > 교회",
    "denomination": null,
    "isCult": false,
    "cultType": null,
    "region": "서울특별시 노원구 창1동",
    "website": null,
    "serviceTime": null,
    "pastor": null
  },
  {
    "id": "9173028",
    "name": "신촌성결교회 성봉채플",
    "type": "church",
    "address": "서울 마포구 동교동 186-43",
    "roadAddress": "서울 마포구 신촌로12길 12",
    "phone": "02-3142-6080",
    "lat": 37.55587042502722,
    "lng": 126.93229931802674,
    "kakaoUrl": "http://place.map.kakao.com/9173028",
    "category": "문화,예술 > 종교 > 기독교 > 교회",
    "denomination": null,
    "isCult": false,
    "cultType": null,
    "region": "서울특별시 마포구 동교동",
    "website": "https://policy.daum.net/info/info",
    "serviceTime": null,
    "pastor": null
  },
  {
    "id": "25777044",
    "name": "신용산교회",
    "type": "church",
    "address": "서울 용산구 한강로3가 63-391",
    "roadAddress": "서울 용산구 서빙고로 17",
    "phone": "02-794-7770",
    "lat": 37.52610353140324,
    "lng": 126.9668452801382,
    "kakaoUrl": "http://place.map.kakao.com/25777044",
    "category": "문화,예술 > 종교 > 기독교 > 교회",
    "denomination": null,
    "isCult": false,
    "cultType": null,
    "region": "서울특별시 용산구 이촌2동",
    "website": null,
    "serviceTime": null,
    "pastor": null
  },
  {
    "id": "12519611",
    "name": "은평제일교회",
    "type": "church",
    "address": "서울 은평구 진관동 20-3",
    "roadAddress": "서울 은평구 진관3로 46",
    "phone": "02-353-2829",
    "lat": 37.6405640504038,
    "lng": 126.921440687136,
    "kakaoUrl": "http://place.map.kakao.com/12519611",
    "category": "문화,예술 > 종교 > 기독교 > 교회",
    "denomination": null,
    "isCult": false,
    "cultType": null,
    "region": "경기도 고양시덕양구 지축동",
    "website": "http://www.은평제일교회.aub.kr",
    "serviceTime": null,
    "pastor": null
  },
  {
    "id": "7998770",
    "name": "순복음강남교회",
    "type": "church",
    "address": "서울 강남구 역삼동 833-6",
    "roadAddress": "서울 강남구 역삼로8길 12",
    "phone": "02-3469-4600",
    "lat": 37.4932762633433,
    "lng": 127.033390109168,
    "kakaoUrl": "http://place.map.kakao.com/7998770",
    "category": "문화,예술 > 종교 > 기독교 > 교회",
    "denomination": null,
    "isCult": false,
    "cultType": null,
    "region": "서울특별시 강남구 도곡1동",
    "website": "http://www.fggn.kr",
    "serviceTime": null,
    "pastor": null
  },
  {
    "id": "8233714",
    "name": "고척교회",
    "type": "church",
    "address": "서울 구로구 고척동 172-6",
    "roadAddress": "서울 구로구 중앙로 79",
    "phone": "02-2686-5871",
    "lat": 37.5044003472736,
    "lng": 126.860859970872,
    "kakaoUrl": "http://place.map.kakao.com/8233714",
    "category": "문화,예술 > 종교 > 기독교 > 교회",
    "denomination": null,
    "isCult": false,
    "cultType": null,
    "region": "서울특별시 영등포구 고척동",
    "website": "https://www.gocheok.or.kr",
    "serviceTime": null,
    "pastor": null
  },
  {
    "id": "14853734",
    "name": "양광교회",
    "type": "church",
    "address": "서울 은평구 녹번동 129-1",
    "roadAddress": "서울 은평구 진흥로 176",
    "phone": "02-355-0682",
    "lat": 37.608162070097016,
    "lng": 126.92887700550612,
    "kakaoUrl": "http://place.map.kakao.com/14853734",
    "category": "문화,예술 > 종교 > 기독교 > 교회",
    "denomination": null,
    "isCult": false,
    "cultType": null,
    "region": "서울특별시 서대문구 녹번동",
    "website": "https://policy.daum.net/info/info",
    "serviceTime": null,
    "pastor": null
  },
  {
    "id": "9474549",
    "name": "충신교회",
    "type": "church",
    "address": "서울 용산구 이촌동 302-67",
    "roadAddress": "서울 용산구 이촌로 188",
    "phone": "02-793-7740",
    "lat": 37.5211609528358,
    "lng": 126.968009225565,
    "kakaoUrl": "http://place.map.kakao.com/9474549",
    "category": "문화,예술 > 종교 > 기독교 > 교회",
    "denomination": null,
    "isCult": false,
    "cultType": null,
    "region": "서울특별시 용산구 이촌2동",
    "website": "http://www.choongshin.or.kr/",
    "serviceTime": null,
    "pastor": null
  },
  {
    "id": "23465934",
    "name": "꽃재교회",
    "type": "church",
    "address": "서울 성동구 하왕십리동 1070-5",
    "roadAddress": "서울 성동구 마장로 164",
    "phone": "02-2299-5412",
    "lat": 37.5667705977288,
    "lng": 127.027817694009,
    "kakaoUrl": "http://place.map.kakao.com/23465934",
    "category": "문화,예술 > 종교 > 기독교 > 교회",
    "denomination": null,
    "isCult": false,
    "cultType": null,
    "region": "서울특별시 동대문구 용두2동",
    "website": "http://www.bhmc.kr",
    "serviceTime": null,
    "pastor": null
  },
  {
    "id": "10317403",
    "name": "왕십리교회",
    "type": "church",
    "address": "서울 성동구 상왕십리동 816-4",
    "roadAddress": "서울 성동구 난계로 160",
    "phone": "02-2299-1011",
    "lat": 37.56600378593255,
    "lng": 127.02400519240872,
    "kakaoUrl": "http://place.map.kakao.com/10317403",
    "category": "문화,예술 > 종교 > 기독교 > 교회",
    "denomination": null,
    "isCult": false,
    "cultType": null,
    "region": "서울특별시 성동구 행당2동",
    "website": "https://policy.daum.net/info/info",
    "serviceTime": null,
    "pastor": null
  },
  {
    "id": "8208880",
    "name": "남포교회",
    "type": "church",
    "address": "서울 송파구 잠실동 85",
    "roadAddress": "서울 송파구 올림픽로4길 17",
    "phone": "02-415-1323",
    "lat": 37.50879007712907,
    "lng": 127.07707960730838,
    "kakaoUrl": "http://place.map.kakao.com/8208880",
    "category": "문화,예술 > 종교 > 기독교 > 교회",
    "denomination": null,
    "isCult": false,
    "cultType": null,
    "region": "서울특별시 송파구 잠실동",
    "website": "http://lamp.kr/",
    "serviceTime": null,
    "pastor": null
  },
  {
    "id": "9977633",
    "name": "종교교회",
    "type": "church",
    "address": "서울 종로구 도렴동 32",
    "roadAddress": "서울 종로구 사직로8길 48",
    "phone": "02-6322-2100",
    "lat": 37.5738095657131,
    "lng": 126.973900345239,
    "kakaoUrl": "http://place.map.kakao.com/9977633",
    "category": "문화,예술 > 종교 > 기독교 > 교회",
    "denomination": null,
    "isCult": false,
    "cultType": null,
    "region": "서울특별시 중구 충정로1가",
    "website": null,
    "serviceTime": null,
    "pastor": null
  },
  {
    "id": "8883955",
    "name": "내수동교회",
    "type": "church",
    "address": "서울 종로구 내수동 110-8",
    "roadAddress": "서울 종로구 경희궁2길 5-6",
    "phone": "02-737-6351",
    "lat": 37.573250232545945,
    "lng": 126.97083960458107,
    "kakaoUrl": "http://place.map.kakao.com/8883955",
    "category": "문화,예술 > 종교 > 기독교 > 교회",
    "denomination": null,
    "isCult": false,
    "cultType": null,
    "region": "서울특별시 서대문구 영천동",
    "website": null,
    "serviceTime": null,
    "pastor": null
  },
  {
    "id": "7827350",
    "name": "예능교회",
    "type": "church",
    "address": "서울 종로구 평창동 156",
    "roadAddress": "서울 종로구 평창문화로 81-5",
    "phone": "02-379-8855",
    "lat": 37.6071560615412,
    "lng": 126.969598725263,
    "kakaoUrl": "http://place.map.kakao.com/7827350",
    "category": "문화,예술 > 종교 > 기독교 > 교회",
    "denomination": null,
    "isCult": false,
    "cultType": null,
    "region": "서울특별시 서대문구 평창동",
    "website": null,
    "serviceTime": null,
    "pastor": null
  },
  {
    "id": "16269369",
    "name": "동신교회",
    "type": "church",
    "address": "서울 종로구 창신동 432",
    "roadAddress": "서울 종로구 종로44길 43",
    "phone": "02-764-1181",
    "lat": 37.57097000095533,
    "lng": 127.0129610384729,
    "kakaoUrl": "http://place.map.kakao.com/16269369",
    "category": "문화,예술 > 종교 > 기독교 > 교회",
    "denomination": null,
    "isCult": false,
    "cultType": null,
    "region": "서울특별시 성북구 보문동7가",
    "website": null,
    "serviceTime": null,
    "pastor": null
  },
  {
    "id": "8283807",
    "name": "동숭교회",
    "type": "church",
    "address": "서울 종로구 동숭동 195-6",
    "roadAddress": "서울 종로구 이화장길 94",
    "phone": "02-743-0017",
    "lat": 37.5793048133456,
    "lng": 127.004845364879,
    "kakaoUrl": "http://place.map.kakao.com/8283807",
    "category": "문화,예술 > 종교 > 기독교 > 교회",
    "denomination": null,
    "isCult": false,
    "cultType": null,
    "region": "서울특별시 성북구 성북2동",
    "website": "https://www.ds.or.kr/",
    "serviceTime": null,
    "pastor": null
  }
]